"ID";"CulturalCenterName";"AdmArea";"District";"Address";"NumberOfAccessPoints";"WiFiName";"CoverageArea";"FunctionFlag";"AccessFlag";"Password";"Latitude_WGS84";"Longitude_WGS84";"global_id";"geodata_center";"geoarea";
"Код";"Наименование культурного центра";"Административный округ";"Район";"Адрес";"Количество точек доступа";"Имя Wi-Fi сети";"Зона покрытия, в метрах";"Признак функционирования";"Условия доступа";"Пароль";"Широта в WGS-84";"Долгота в WGS-84";"global_id";"geodata_center";"geoarea";
"23";"ГБУК города Москвы «ОКЦ ЮАО» Дом культуры «Нагатино»";"Южный административный округ";"район Нагатинский Затон";"Российская Федерация, город Москва, внутригородская территория муниципальный округ Нагатинский Затон, Судостроительная улица, дом 28, корпус 1";"2";"Moscow_WiFi_Free";"50";"действует";"открытая сеть";"";"55.682311";"37.685296";"879812733";"";"";
"25";"ГБУК города Москвы «ОКЦ ЮВАО» Территориальная клубная система «Спутник»";"Юго-Восточный административный округ";"Рязанский район";"Российская Федерация, город Москва, внутригородская территория муниципальный округ Рязанский, Яснополянская улица, дом 3, корпус 1";"1";"Moscow_WiFi_Free";"50";"действует";"открытая сеть";"";"55.722036";"37.787498";"879812737";"";"";
"26";"ГБУК города Москвы «ОКЦ ЗАО» Территориальная клубная система «Планета»";"Западный административный округ";"район Очаково-Матвеевское";"Российская Федерация, город Москва, внутригородская территория муниципальный округ Очаково-Матвеевское, Озёрная улица, дом 23, корпус 1";"1";"Moscow_WiFi_Free";"50";"действует";"открытая сеть";"";"55.676402";"37.454501";"879812738";"";"";
"27";"ГБУК города Москвы «ОКЦ ЗАО» Территориальная клубная система «Оптимист»";"Западный административный округ";"район Тропарёво-Никулино";"Российская Федерация, город Москва, внутригородская территория муниципальный округ Тропарево-Никулино, проспект Вернадского, дом 89, корпус 4";"1";"Moscow_WiFi_Free";"50";"действует";"открытая сеть";"";"55.664984";"37.500127";"879812739";"";"";
"28";"ГБУК города Москвы «ОКЦ ЮАО» Культурный центр «Москворечье»";"Южный административный округ";"район Москворечье-Сабурово";"Российская Федерация, город Москва, внутригородская территория муниципальный округ Москворечье-Сабурово, Каширское шоссе, дом 52";"54";"Moscow_WiFi_Free";"50";"действует";"открытая сеть";"";"55.645964";"37.668022";"879812741";"";"";
"29";"ГБУК города Москвы «ОКЦ ТиНАО» Дом культуры «Пересвет»";"Новомосковский административный округ";"поселение Рязановское";"Российская Федерация, город Москва, внутригородская территория поселение Рязановское, посёлок Знамя Октября, дом 3, корпус 1";"1";"Moscow_WiFi_Free";"50";"действует";"открытая сеть";"";"55.473643";"37.538260";"879812742";"";"";
"31";"ГБУК города Москвы «ОКЦ ЮВАО» Культурный центр имени Астахова";"Юго-Восточный административный округ";"район Люблино";"Российская Федерация, город Москва, внутригородская территория муниципальный округ Люблино, Люблинская улица, дом 149";"10";"Moscow_WiFi_Free";"50";"действует";"открытая сеть";"";"55.663212";"37.742762";"879812744";"";"";
"32";"ГБУК города Москвы «ОКЦ ЮВАО» Культурный центр имени Астахова";"Юго-Восточный административный округ";"район Марьино";"Российская Федерация, город Москва, внутригородская территория муниципальный округ Марьино, Новочеркасский бульвар, дом 29";"3";"Moscow_WiFi_Free";"50";"действует";"открытая сеть";"";"55.649185";"37.73646";"879812745";"";"";
"33";"ГБУК города Москвы «ОКЦ СЗАО» Дом культуры «Берендей»";"Северо-Западный административный округ";"район Хорошёво-Мнёвники";"Российская Федерация, город Москва, внутригородская территория муниципальный округ Хорошево-Мневники, улица Народного Ополчения, дом 12, корпус 3";"3";"Moscow_WiFi_Free";"50";"действует";"открытая сеть";"";"55.772289";"37.478432";"879812746";"";"";
"34";"ГБУК города Москвы «Дом культуры «Культурный центр»";"Северо-Восточный административный округ";"Останкинский район";"город Москва, улица Академика Королёва, дом 8, корпус 1";"5";"Moscow_WiFi_Free";"50";"действует";"открытая сеть";"";"55.822599";"37.624256";"879812749";"";"";
"35";"ГБУК города Москвы «ОКЦ СЗАО» Клуб «Атом»";"Северо-Западный административный округ";"район Щукино";"город Москва, улица Маршала Бирюзова, дом 12";"3";"Moscow_WiFi_Free";"50";"действует";"открытая сеть";"";"55.793303";"37.494512";"879812750";"";"";
"40";"ГБУК города Москвы «ОКЦ ЗАО» Территориальная клубная система «Бригантина»";"Западный административный округ";"район Филёвский Парк";"Российская Федерация, город Москва, внутригородская территория муниципальный округ Филевский Парк, Кастанаевская улица, дом 9, корпус 2";"1";"Moscow_WiFi_Free";"50";"действует";"открытая сеть";"";"55.738029";"37.494359";"879812755";"";"";
"41";"ГБУК города Москвы «ОКЦ ЗАО» Территориальная клубная система «Ново Переделкино»";"Западный административный округ";"район Ново-Переделкино";"Российская Федерация, город Москва, внутригородская территория муниципальный округ Ново-Переделкино, Боровское шоссе, дом 35, корпус 1";"3";"Moscow_WiFi_Free";"50";"действует";"открытая сеть";"";"55.640609";"37.360969";"879812757";"";"";
"42";"ГБУК города Москвы «ОКЦ ЗАО» Территориальная клубная система «Ново Переделкино»";"Западный административный округ";"район Ново-Переделкино";"Российская Федерация, город Москва, внутригородская территория муниципальный округ Ново-Переделкино, Лукинская улица, дом 1, корпус 1";"11";"Moscow_WiFi_Free";"50";"действует";"открытая сеть";"";"55.646447";"37.343901";"879812760";"";"";
"50";"ГБУК города Москвы «ОКЦ ЗАО» Территориальная клубная система «Планета»";"Западный административный округ";"район Очаково-Матвеевское";"Российская Федерация, город Москва, внутригородская территория муниципальный округ Очаково-Матвеевское, Озёрная улица, дом 11";"1";"Moscow_WiFi_Free";"50";"действует";"открытая сеть";"";"55.681123";"37.459864";"879812761";"";"";
"51";"ГБУК города Москвы «ОКЦ ЗАО» Территориальная клубная система «Планета»";"Западный административный округ";"район Очаково-Матвеевское";"Российская Федерация, город Москва, внутригородская территория муниципальный округ Очаково-Матвеевское, Озёрная улица, дом 4/9";"6";"Moscow_WiFi_Free";"50";"действует";"открытая сеть";"";"55.683036";"37.460574";"879812764";"";"";
"52";"ГБУК города Москвы «ОКЦ ЗАО» Территориальная клубная система «Планета»";"Западный административный округ";"район Очаково-Матвеевское";"Российская Федерация, город Москва, внутригородская территория муниципальный округ Очаково-Матвеевское, Очаковское шоссе, дом 21, корпус 2";"2";"Moscow_WiFi_Free";"50";"действует";"открытая сеть";"";"55.690583";"37.451815";"879812767";"";"";
"46";"ГБУК города Москвы «ОКЦ ЮАО» Территориальная клубная система «Орехово»";"Южный административный округ";"район Орехово-Борисово Северное";"Российская Федерация, город Москва, внутригородская территория муниципальный округ Орехово-Борисово Северное, Домодедовская улица, дом 22, корпус 1";"3";"Moscow_WiFi_Free";"50";"действует";"открытая сеть";"";"55.611668";"37.706910";"879812770";"";"";
"47";"ГБУК города Москвы «ОКЦ ЗАО» Территориальная клубная система «Планета»";"Западный административный округ";"район Очаково-Матвеевское";"Российская Федерация, город Москва, внутригородская территория муниципальный округ Очаково-Матвеевское, Веерная улица, дом 3, корпус 6";"3";"Moscow_WiFi_Free";"50";"действует";"открытая сеть";"";"55.705762";"37.476986";"879812772";"";"";
"55";"ГБУК города Москвы «ОКЦ СВАО» Территориальная клубная система «Товарищ»";"Северо-Восточный административный округ";"район Бибирево";"Российская Федерация, город Москва, внутригородская территория муниципальный округ Бибирево, улица Лескова, дом 30, корпус 1";"2";"Moscow_WiFi_Free";"50";"действует";"открытая сеть";"";"55.891683";"37.617411";"879812773";"";"";
"56";"ГБУК города Москвы «ОКЦ СВАО» Территориальная клубная система «Товарищ»";"Северо-Восточный административный округ";"район Ростокино";"Российская Федерация, город Москва, внутригородская территория муниципальный округ Ростокино, проспект Мира, дом 163, корпус 1";"3";"Moscow_WiFi_Free";"50";"действует";"открытая сеть";"";"55.836388";"37.653334";"879812774";"";"";
"57";"ГБУК города Москвы «ОКЦ СВАО» Территориальная клубная система «Товарищ»";"Северо-Восточный административный округ";"Ярославский район";"Российская Федерация, город Москва, внутригородская территория муниципальный округ Ярославский, Ярославское шоссе, дом 18";"1";"Moscow_WiFi_Free";"50";"действует";"открытая сеть";"";"55.855042";"37.685467";"879812775";"";"";
"58";"ГБУК города Москвы «ОКЦ ЗАО» Территориальная клубная система «Фили Давыдково»";"Западный административный округ";"район Фили-Давыдково";"Российская Федерация, город Москва, внутригородская территория муниципальный округ Фили-Давыдково, Большая Филёвская улица, дом 59, корпус 1";"3";"Moscow_WiFi_Free";"50";"действует";"открытая сеть";"";"55.738292";"37.464904";"879812776";"";"";
"59";"ГБУК города Москвы «ОКЦ ЗАО» Территориальная клубная система «Фили Давыдково»";"Западный административный округ";"район Фили-Давыдково";"Российская Федерация, город Москва, внутригородская территория муниципальный округ Фили-Давыдково, Кременчугская улица, дом 7, корпус 3";"3";"Moscow_WiFi_Free";"50";"действует";"открытая сеть";"";"55.721833";"37.465721";"879812777";"";"";
"61";"ГБУК города Москвы «ОКЦ ЗАО» Территориальная клубная система «Оптимист»";"Западный административный округ";"район Тропарёво-Никулино";"Российская Федерация, город Москва, внутригородская территория муниципальный округ Тропарево-Никулино, улица Академика Анохина, дом 62";"4";"Moscow_WiFi_Free";"50";"действует";"открытая сеть";"";"55.648428";"37.468479";"879812780";"";"";
"65";"ГБУК города Москвы «ОКЦ ЗАО» Территориальная клубная система «Оптимист»";"Западный административный округ";"район Раменки";"Российская Федерация, город Москва, внутригородская территория муниципальный округ Раменки, Мичуринский проспект, дом 54, корпус 3";"2";"Moscow_WiFi_Free";"50";"действует";"открытая сеть";"";"55.694378";"37.487784";"879812785";"";"";
"66";"ГБУК города Москвы «ОКЦ ЗАО» Территориальная клубная система «Оптимист»";"Западный административный округ";"район Раменки";"Российская Федерация, город Москва, внутригородская территория муниципальный округ Раменки, 3-й Сетуньский проезд, дом 13";"1";"Moscow_WiFi_Free";"50";"действует";"открытая сеть";"";"55.731871";"37.533526";"879812786";"";"";
"69";"ГБУК города Москвы «Московский продюсерский центр»";"Южный административный округ";"район Чертаново Северное";"Российская Федерация, город Москва, внутригородская территория муниципальный округ Чертаново Северное, микрорайон Северное Чертаново, дом 5, корпус Г";"10";"Moscow_WiFi_Free";"50";"действует";"открытая сеть";"";"55.637992";"37.590991";"879812789";"";"";
"70";"ГБУК города Москвы «ОКЦ ТиНАО» Дом культуры «Десна»";"Новомосковский административный округ";"поселение Рязановское";"город Москва, поселение Рязановское, посёлок Ерино, Высокая улица, дом 1";"1";"Moscow_WiFi_Free";"50";"действует";"открытая сеть";"";"55.449342";"37.521066";"879812791";"";"";
"71";"ГБУК города Москвы «ОКЦ САО» Центр культуры «Гармония»";"Северный административный округ";"район Сокол";"Российская Федерация, город Москва, внутригородская территория муниципальный округ Сокол, 2-я Песчаная улица, дом 3";"2";"Moscow_WiFi_Free";"50";"действует";"открытая сеть";"";"55.796420";"37.516251";"879812792";"";"";
"74";"ГБУК города Москвы «ОКЦ ЮВАО» Территориальная клубная система «Спутник»";"Юго-Восточный административный округ";"район Люблино";"Российская Федерация, город Москва, внутригородская территория муниципальный округ Люблино, улица Головачёва, дом 3, корпус 2";"2";"Moscow_WiFi_Free";"50";"действует";"открытая сеть";"";"55.675209";"37.805509";"879812796";"";"";
"99";"ГБУК города Москвы «ОКЦ ЮАО» Культурный центр «Загорье»";"Южный административный округ";"район Бирюлёво Восточное";"Российская Федерация, город Москва, внутригородская территория муниципальный округ Бирюлево Восточное, Загорьевская улица, дом 1, корпус 1";"5";"Moscow_WiFi_Free";"50";"действует";"открытая сеть";"";"55.581668";"37.673969";"879812797";"";"";
"76";"ГБУК города Москвы «ОКЦ ЗАО» Территориальная клубная система «Кунцево»";"Западный административный округ";"Можайский район";"Российская Федерация, город Москва, внутригородская территория муниципальный округ Можайский, Беловежская улица, дом 39, корпус 1";"4";"Moscow_WiFi_Free";"50";"действует";"открытая сеть";"";"55.710666";"37.391987";"879812801";"";"";
"101";"ГАУК города Москвы «Культурный центр «Зеленоград»";"Зеленоградский административный округ";"район Силино";"Российская Федерация, город Москва, внутригородская территория муниципальный округ Силино, город Зеленоград, корпус 1013А";"2";"Moscow_WiFi_Free";"50";"действует";"открытая сеть";"";"55.989376";"37.170741";"879812803";"";"";
"78";"ГБУК города Москвы «ОКЦ ЗАО» Культурный центр «Зодчие»";"Западный административный округ";"район Кунцево";"Российская Федерация, город Москва, внутригородская территория муниципальный округ Кунцево, улица Боженко, дом 14, корпус 4";"3";"Moscow_WiFi_Free";"50";"действует";"открытая сеть";"";"55.732671";"37.407780";"879812806";"";"";
"79";"ГБУК города Москвы «ОКЦ САО» Центр культуры «Гармония»";"Северный административный округ";"район Коптево";"Российская Федерация, город Москва, внутригородская территория муниципальный округ Коптево, Большая Академическая улица, дом 35";"2";"Moscow_WiFi_Free";"50";"действует";"открытая сеть";"";"55.831357";"37.530939";"879812808";"";"";
"104";"ГАУК города Москвы «Культурный центр «Зеленоград»";"Зеленоградский административный округ";"район Крюково";"Российская Федерация, город Москва, внутригородская территория муниципальный округ Крюково, город Зеленоград, корпус 1432";"6";"Moscow_WiFi_Free";"50";"действует";"открытая сеть";"";"55.989169";"37.154554";"879812810";"";"";
"81";"ГБУК города Москвы «ОКЦ ЮАО» Территориальная клубная система «Орехово»";"Южный административный округ";"район Орехово-Борисово Северное";"Российская Федерация, город Москва, внутригородская территория муниципальный округ Орехово-Борисово Северное, Борисовский проезд, дом 22, корпус 1, строение 2";"4";"Moscow_WiFi_Free";"50";"действует";"открытая сеть";"";"55.624190";"37.725801";"879812813";"";"";
"82";"ГБУК города Москвы «ОКЦ ЗАО» Территориальная клубная система «Ново Переделкино»";"Западный административный округ";"район Ново-Переделкино";"Российская Федерация, город Москва, внутригородская территория муниципальный округ Ново-Переделкино, Боровское шоссе, дом 33, корпус 1";"2";"Moscow_WiFi_Free";"50";"действует";"открытая сеть";"";"55.640909";"37.361570";"879812815";"";"";
"107";"ГБУК города Москвы «ОКЦ ЗелАО» Культурный центр «Доброволец»";"Зеленоградский административный округ";"район Савёлки";"Российская Федерация, город Москва, внутригородская территория муниципальный округ Савелки, город Зеленоград, корпус 705";"5";"Moscow_WiFi_Free";"50";"действует";"открытая сеть";"";"55.985871";"37.235106";"879812817";"";"";
"85";"ГБУК города Москвы «ОКЦ ЮЗАО» Культурный центр «Лира»";"Юго-Западный административный округ";"район Южное Бутово";"Российская Федерация, город Москва, внутригородская территория муниципальный округ Южное Бутово, улица Брусилова, дом 15, корпус 1";"4";"Moscow_WiFi_Free";"50";"действует";"открытая сеть";"";"55.502416";"37.580436";"879812822";"";"";
"110";"ГБУК города Москвы «ОКЦ ЮВАО» Территориальная клубная система «Спутник»";"Юго-Восточный административный округ";"Рязанский район";"Российская Федерация, город Москва, внутригородская территория муниципальный округ Рязанский, 3-я Институтская улица, дом 3";"3";"Moscow_WiFi_Free";"50";"действует";"открытая сеть";"";"55.720662";"37.781775";"879812823";"";"";
"87";"ГБУК города Москвы «ОКЦ ЗАО» Культурный центр «Рублево»";"Западный административный округ";"район Кунцево";"Российская Федерация, город Москва, внутригородская территория муниципальный округ Кунцево, улица Василия Ботылёва, дом 43";"25";"Moscow_WiFi_Free";"50";"действует";"открытая сеть";"";"55.790124";"37.353531";"879812825";"";"";
"88";"ГБУК города Москвы «ОКЦ ЗАО» Территориальная клубная система «Планета»";"Западный административный округ";"район Очаково-Матвеевское";"Российская Федерация, город Москва, внутригородская территория муниципальный округ Очаково-Матвеевское, Веерная улица, дом 12, корпус 1";"4";"Moscow_WiFi_Free";"50";"действует";"открытая сеть";"";"55.710915";"37.485843";"879812826";"";"";
"1";"ГБУК города Москвы «ОКЦ ЗАО» Культурный центр «Зодчие»";"Западный административный округ";"район Кунцево";"Российская Федерация, город Москва, внутригородская территория муниципальный округ Кунцево, улица Боженко, дом 9";"1";"Moscow_WiFi_Free";"50";"действует";"открытая сеть";"";"55.732291";"37.405202";"879812827";"";"";
"2";"ГБУК города Москвы «ОКЦ ЗАО» Культурный центр «Рублево»";"Западный административный округ";"район Кунцево";"Российская Федерация, город Москва, внутригородская территория муниципальный округ Кунцево, Полоцкая улица, дом 16";"1";"Moscow_WiFi_Free";"50";"действует";"открытая сеть";"";"55.734456";"37.425180";"879812830";"";"";
"3";"ГБУК города Москвы «ОКЦ ЗАО» Культурный центр «Рублево»";"Западный административный округ";"район Кунцево";"Российская Федерация, город Москва, внутригородская территория муниципальный округ Кунцево, Партизанская улица, дом 35, корпус 1";"4";"Moscow_WiFi_Free";"50";"действует";"открытая сеть";"";"55.738546";"37.407663";"879812833";"";"";
"4";"ГБУК города Москвы «ОКЦ ЗАО» Территориальная клубная система «Кунцево»";"Западный административный округ";"район Крылатское";"Российская Федерация, город Москва, внутригородская территория муниципальный округ Крылатское, Крылатская улица, дом 29, корпус 2";"1";"Moscow_WiFi_Free";"50";"действует";"открытая сеть";"";"55.770056";"37.410879";"879812835";"";"";
"5";"ГБУК города Москвы «ОКЦ ЗАО» Территориальная клубная система «Кунцево»";"Западный административный округ";"район Крылатское";"Российская Федерация, город Москва, внутригородская территория муниципальный округ Крылатское, Рублёвское шоссе, дом 36, корпус 2";"1";"Moscow_WiFi_Free";"50";"действует";"открытая сеть";"";"55.749881";"37.418137";"879812839";"";"";
"7";"ГБУК города Москвы «ОКЦ ЗАО» Дом культуры «Аструм»";"Западный административный округ";"район Дорогомилово";"Российская Федерация, город Москва, внутригородская территория муниципальный округ Дорогомилово, улица Генерала Ермолова, дом 10/6";"4";"Moscow_WiFi_Free";"50";"действует";"открытая сеть";"";"55.739184";"37.515533";"879812843";"";"";
"8";"ГБУК города Москвы «ОКЦ ЗАО» Дом культуры «Аструм»";"Западный административный округ";"район Дорогомилово";"Российская Федерация, город Москва, внутригородская территория муниципальный округ Дорогомилово, площадь Победы, дом 2, корпус 2";"1";"Moscow_WiFi_Free";"50";"действует";"открытая сеть";"";"55.737507";"37.518371";"879812845";"";"";
"9";"ГБУК города Москвы «ОКЦ ЦАО» Дом культуры «Гайдаровец»";"Центральный административный округ";"Басманный район";"Российская Федерация, город Москва, внутригородская территория муниципальный округ Басманный, Большой Казённый переулок, дом 8, строение 2";"1";"Moscow_WiFi_Free";"50";"действует";"открытая сеть";"";"55.759750";"37.655975";"879812846";"";"";
"10";"ГБУК города Москвы «ОКЦ СЗАО» Клуб «Феникс»";"Северо-Западный административный округ";"район Щукино";"Российская Федерация, город Москва, внутригородская территория муниципальный округ Щукино, улица Маршала Бирюзова, дом 10, корпус 2";"1";"Moscow_WiFi_Free";"50";"действует";"открытая сеть";"";"55.793060";"37.496309";"879812847";"";"";
"13";"ГБУК города Москвы «ОКЦ ЗАО» Территориальная клубная система «Солнцево»";"Западный административный округ";"район Солнцево";"Российская Федерация, город Москва, внутригородская территория муниципальный округ Солнцево, Солнцевский проспект, дом 5";"1";"Moscow_WiFi_Free";"50";"действует";"открытая сеть";"";"55.651349";"37.398347";"879812882";"";"";
"14";"ГАУК города Москвы «Культурный центр «Зеленоград»";"Зеленоградский административный округ";"район Силино";"Российская Федерация, город Москва, внутригородская территория муниципальный округ Силино, город Зеленоград, корпус 1006";"1";"Moscow_WiFi_Free";"50";"действует";"открытая сеть";"";"55.984703";"37.175044";"879812883";"";"";
"16";"ГБУК города Москвы «ОКЦ ЗАО» Территориальная клубная система «Солнцево»";"Западный административный округ";"район Солнцево";"Российская Федерация, город Москва, внутригородская территория муниципальный округ Солнцево, Солнцевский проспект, дом 17/1";"1";"Moscow_WiFi_Free";"50";"действует";"открытая сеть";"";"55.647991";"37.409298";"879812885";"";"";
"17";"ГБУК города Москвы «ОКЦ СВАО» Московский многофункциональный культурный центр";"Северо-Восточный административный округ";"Бабушкинский район";"Российская Федерация, город Москва, внутригородская территория муниципальный округ Бабушкинский, улица Коминтерна, дом 11/7";"4";"Moscow_WiFi_Free";"50";"действует";"открытая сеть";"";"55.864505";"37.679179";"879812886";"";"";
"18";"ГБУК города Москвы «Центр культуры и искусства «Меридиан»";"Юго-Западный административный округ";"район Черёмушки";"город Москва, Профсоюзная улица, дом 61";"40";"Moscow_WiFi_Free";"50";"действует";"открытая сеть";"";"55.656697";"37.542500";"879812887";"";"";
"150";"ГБУК города Москвы «ОКЦ ЗАО» Культурный центр «Зодчие»";"Западный административный округ";"район Кунцево";"Российская Федерация, город Москва, внутригородская территория муниципальный округ Кунцево, Партизанская улица, дом 23";"12";"Moscow_WiFi_Free";"50";"действует";"открытая сеть";"";"55.735419";"37.411265";"879812897";"";"";
"132";"ГБУК города Москвы «Культурный центр «Строгино»";"Северо-Западный административный округ";"район Строгино";"Российская Федерация, город Москва, внутригородская территория муниципальный округ Строгино, улица Маршала Катукова, дом 9, корпус 3";"3";"Moscow_WiFi_Free";"50";"действует";"открытая сеть";"";"55.811831";"37.404591";"879812898";"";"";
"151";"ГБУК города Москвы «ОКЦ ЗАО» Дом культуры «Аструм»";"Западный административный округ";"район Дорогомилово";"Российская Федерация, город Москва, внутригородская территория муниципальный округ Дорогомилово, площадь Победы, дом 1, корпус А";"8";"Moscow_WiFi_Free";"50";"действует";"открытая сеть";"";"55.736508";"37.522054";"879812899";"";"";
"152";"ГБУК города Москвы «ОКЦ ЗАО» Территориальная клубная система «Солнцево»";"Западный административный округ";"район Солнцево";"Российская Федерация, город Москва, внутригородская территория муниципальный округ Солнцево, Производственная улица, дом 7";"2";"Moscow_WiFi_Free";"50";"действует";"открытая сеть";"";"55.649195";"37.384828";"879812900";"";"";
"133";"ГБУК города Москвы «Дом Романса»";"Северо-Западный административный округ";"район Щукино";"Российская Федерация, город Москва, внутригородская территория муниципальный округ Щукино, улица Маршала Новикова, дом 11";"3";"Moscow_WiFi_Free";"50";"действует";"открытая сеть";"";"55.802543";"37.465065";"879812901";"";"";
"137";"ГБУК города Москвы «ОКЦ САО» Дом культуры «Восход»";"Северный административный округ";"район Западное Дегунино";"Российская Федерация, город Москва, внутригородская территория муниципальный округ Западное Дегунино, улица Маршала Федоренко, дом 2, корпус 1";"2";"Moscow_WiFi_Free";"50";"действует";"открытая сеть";"";"55.879233";"37.494162";"879812908";"";"";
"138";"ГБУК города Москвы «ОКЦ САО» Дом культуры «Восход»";"Северный административный округ";"район Западное Дегунино";"Российская Федерация, город Москва, внутригородская территория муниципальный округ Западное Дегунино, улица Маршала Федоренко, дом 2, корпус 2";"4";"Moscow_WiFi_Free";"50";"действует";"открытая сеть";"";"55.879026";"37.494997";"879812910";"";"";
"140";"ГБУК города Москвы «ОКЦ ЮАО» Дом культуры «Дружба»";"Южный административный округ";"район Бирюлёво Западное";"Российская Федерация, город Москва, внутригородская территория муниципальный округ Бирюлево Западное, Медынская улица, дом 6А";"4";"Moscow_WiFi_Free";"50";"действует";"открытая сеть";"";"55.593258";"37.644225";"879812914";"";"";
"142";"ГБУК города Москвы «ОКЦ ЗАО» Территориальная клубная система «Кунцево»";"Западный административный округ";"Можайский район";"Российская Федерация, город Москва, внутригородская территория муниципальный округ Можайский, Можайское шоссе, дом 29";"2";"Moscow_WiFi_Free";"50";"действует";"открытая сеть";"";"55.718775";"37.422710";"879812919";"";"";
"161";"ГБУК города Москвы «ОКЦ СЗАО» Культурный центр «Алые паруса»";"Северо-Западный административный округ";"район Северное Тушино";"Российская Федерация, город Москва, внутригородская территория муниципальный округ Северное Тушино, улица Свободы, дом 91";"6";"Moscow_WiFi_Free";"50";"действует";"открытая сеть";"";"55.866632";"37.445267";"879812920";"";"";
"144";"ГБУК города Москвы «Культурный центр «Строгино»";"Северо-Западный административный округ";"район Строгино";"Российская Федерация, город Москва, внутригородская территория муниципальный округ Строгино, Неманский проезд, дом 5, корпус 2";"2";"Moscow_WiFi_Free";"50";"действует";"открытая сеть";"";"55.814502";"37.394664";"879812923";"";"";
"145";"ГБУК города Москвы «ОКЦ ВАО» Централизованная клубная система «Восток»";"Восточный административный округ";"район Метрогородок";"Российская Федерация, город Москва, внутригородская территория муниципальный округ Метрогородок, улица Николая Химушина, дом 17, корпус 3";"6";"Moscow_WiFi_Free";"50";"действует";"открытая сеть";"";"55.824187";"37.764555";"879812925";"";"";
"164";"ГБУК города Москвы «ОКЦ СВАО» Клуб «Молодежный»";"Северо-Восточный административный округ";"район Свиблово";"Российская Федерация, город Москва, внутригородская территория муниципальный округ Свиблово, Снежная улица, дом 13, корпус 1";"6";"Moscow_WiFi_Free";"50";"действует";"открытая сеть";"";"55.852162";"37.645510";"879812926";"";"";
"146";"ГБУК города Москвы «ОКЦ СЗАО» Клуб «Феникс»";"Северо-Западный административный округ";"район Хорошёво-Мнёвники";"Российская Федерация, город Москва, внутригородская территория муниципальный округ Хорошево-Мневники, Новохорошёвский проезд, дом 26";"2";"Moscow_WiFi_Free";"50";"действует";"открытая сеть";"";"55.777935";"37.491161";"879812927";"";"";
"167";"ГБУК города Москвы «ОКЦ ЗАО» Территориальная клубная система «Бригантина»";"Западный административный округ";"район Филёвский Парк";"Российская Федерация, город Москва, внутригородская территория муниципальный округ Филевский Парк, Филёвский бульвар, дом 11А";"2";"Moscow_WiFi_Free";"50";"действует";"открытая сеть";"";"55.765741";"37.484765";"879812930";"";"";
"169";"ГБУК города Москвы «ОКЦ СВАО» Дом культуры «Темп»";"Северо-Восточный административный округ";"район Бибирево";"город Москва, Шенкурский проезд, дом 3";"6";"Moscow_WiFi_Free";"50";"действует";"открытая сеть";"";"55.891663";"37.589994";"879812932";"";"";
"170";"ГБУК города Москвы «ОКЦ ЗАО» Территориальная клубная система «Ново Переделкино»";"Западный административный округ";"район Ново-Переделкино";"Российская Федерация, город Москва, внутригородская территория муниципальный округ Ново-Переделкино, улица Шолохова, дом 12";"2";"Moscow_WiFi_Free";"50";"действует";"открытая сеть";"";"55.639527";"37.352003";"879812933";"";"";
"171";"ГБУК города Москвы «ОКЦ ЮАО» Дом культуры «Нагорный»";"Южный административный округ";"Нагорный район";"Российская Федерация, город Москва, внутригородская территория муниципальный округ Нагорный, Электролитный проезд, дом 3, корпус 1";"6";"Moscow_WiFi_Free";"50";"действует";"открытая сеть";"";"55.673631";"37.620959";"879812934";"";"";
"172";"ГБУК города Москвы «ОКЦ САО» Клуб «Родничок»";"Северный административный округ";"Савёловский район";"Российская Федерация, город Москва, внутригородская территория муниципальный округ Савеловский, улица Юннатов, дом 17, корпус 2";"4";"Moscow_WiFi_Free";"50";"действует";"открытая сеть";"";"55.803024";"37.557655";"879812939";"";"";
"173";"ГБУК города Москвы «ОКЦ ЦАО» Дом культуры «Гайдаровец»";"Центральный административный округ";"Басманный район";"Российская Федерация, город Москва, внутригородская территория муниципальный округ Басманный, Яковоапостольский переулок, дом 15";"2";"Moscow_WiFi_Free";"50";"действует";"открытая сеть";"";"55.759071";"37.655859";"879812940";"";"";
"174";"ГБУК города Москвы «Центр культуры и искусства «Меридиан»";"Юго-Западный административный округ";"Обручевский район";"Российская Федерация, город Москва, внутригородская территория муниципальный округ Обручевский, улица Обручева, дом 4, корпус 1";"1";"Moscow_WiFi_Free";"50";"действует";"открытая сеть";"";"55.660496";"37.508840";"879812941";"";"";
"176";"ГБУК города Москвы «Государственный музей «Интеграция» имени Островского» Квартира Сытина";"Центральный административный округ";"Тверской район";"Российская Федерация, город Москва, внутригородская территория муниципальный округ Тверской, Тверская улица, дом 12, строение 2";"3";"Moscow_WiFi_Free";"50";"действует";"открытая сеть";"";"55.763749";"37.607415";"879812943";"";"";
"177";"ГБУК города Москвы «Московский продюсерский центр»";"Северо-Западный административный округ";"район Щукино";"город Москва, улица Маршала Малиновского, дом 7";"30";"Moscow_WiFi_Free";"50";"действует";"открытая сеть";"";"55.790970";"37.492320";"879812944";"";"";
"178";"ГБУК города Москвы «ОКЦ ЦАО» Дом культуры «Гайдаровец»";"Центральный административный округ";"Тверской район";"Российская Федерация, город Москва, внутригородская территория муниципальный округ Тверской, Новослободская улица, дом 73, строение 1";"1";"Moscow_WiFi_Free";"50";"действует";"открытая сеть";"";"55.790367";"37.589805";"879812945";"";"";
"179";"ГАУК города Москвы «Московское агентство организации отдыха и туризма»";"Центральный административный округ";"Басманный район";"Российская Федерация, город Москва, внутригородская территория муниципальный округ Басманный, Малый Харитоньевский переулок, дом 6, строение 1";"5";"Moscow_WiFi_Free";"50";"действует";"открытая сеть";"";"55.766653";"37.644091";"879812947";"";"";
"180";"ГАУК города Москвы «Московское агентство организации отдыха и туризма»";"Центральный административный округ";"Басманный район";"Российская Федерация, город Москва, внутригородская территория муниципальный округ Басманный, Малый Харитоньевский переулок, дом 6, строение 3";"10";"Moscow_WiFi_Free";"50";"действует";"открытая сеть";"";"55.766354";"37.643938";"879812948";"";"";
"181";"ГАУК города Москвы «Московское агентство организации отдыха и туризма»";"Центральный административный округ";"Басманный район";"Российская Федерация, город Москва, внутригородская территория муниципальный округ Басманный, переулок Огородная Слобода, дом 9, строение 1";"9";"Moscow_WiFi_Free";"50";"действует";"открытая сеть";"";"55.766339";"37.643543";"879812949";"";"";
"182";"ГАУК города Москвы «Московское агентство организации отдыха и туризма»";"Центральный административный округ";"район Арбат";"Российская Федерация, город Москва, внутригородская территория муниципальный округ Арбат, 2-й Смоленский переулок, дом 1/4";"7";"Moscow_WiFi_Free";"50";"действует";"открытая сеть";"";"55.747024";"37.581523";"879812950";"";"";
"183";"ГБУК города Москвы «ОКЦ ЦАО» Культурный центр «Новослободский»";"Центральный административный округ";"Тверской район";"город Москва, улица Сущёвский Вал, владение 10А, строение 1";"1";"Moscow_WiFi_Free";"50";"действует";"открытая сеть";"";"55.791825";"37.597028";"879812951";"";"";
"186";"ГБУК города Москвы «Культурный центр «Строгино»";"Северо-Западный административный округ";"район Строгино";"город Москва, улица Маршала Катукова, дом 8";"18";"Moscow_WiFi_Free";"50";"действует";"открытая сеть";"";"55.809590";"37.402372";"879812955";"";"";
"189";"ГБУДО города Москвы «Детская школа искусств «Родник»";"Южный административный округ";"район Царицыно";"город Москва, Кантемировская улица, дом 15, корпус 2";"5";"Moscow_WiFi_Free";"50";"действует";"открытая сеть";"";"55.635066";"37.669055";"879812958";"";"";
"191";"ГБУК города Москвы «Московский драматический театр «Модернъ»";"Центральный административный округ";"Басманный район";"Российская Федерация, город Москва, внутригородская территория муниципальный округ Басманный, Спартаковская площадь, дом 9/1";"8";"Moscow_WiFi_Free";"50";"действует";"открытая сеть";"";"55.776618";"37.682503";"879812961";"";"";
"111";"ГБУК города Москвы «ОКЦ ЮАО» Культурный центр «Загорье»";"Южный административный округ";"район Москворечье-Сабурово";"Российская Федерация, город Москва, внутригородская территория муниципальный округ Москворечье-Сабурово, Кантемировская улица, дом 4, корпус 2";"12";"Moscow_WiFi_Free";"50";"действует";"открытая сеть";"";"55.638069";"37.681101";"879812972";"";"";
"112";"ГБУК города Москвы «ОКЦ ЮВАО» Дворец культуры «Капотня»";"Юго-Восточный административный округ";"район Капотня";"Российская Федерация, город Москва, внутригородская территория муниципальный округ Капотня, 2-й квартал Капотня, дом 20А";"8";"Moscow_WiFi_Free";"50";"действует";"открытая сеть";"";"55.638094";"37.799113";"879812974";"";"";
"113";"ГБУК города Москвы «ОКЦ СЗАО» Клуб «Феникс»";"Северо-Западный административный округ";"район Хорошёво-Мнёвники";"Российская Федерация, город Москва, внутригородская территория муниципальный округ Хорошево-Мневники, Карамышевская набережная, дом 6";"3";"Moscow_WiFi_Free";"50";"действует";"открытая сеть";"";"55.770679";"37.484199";"879812976";"";"";
"115";"ГБУК города Москвы «ОКЦ СВАО» Дом культуры «Смена»";"Северо-Восточный административный округ";"район Бибирево";"город Москва, улица Корнейчука, дом 38Б";"13";"Moscow_WiFi_Free";"50";"действует";"открытая сеть";"";"55.897367";"37.626969";"879812978";"";"";
"120";"ГБУК города Москвы «ОКЦ ЗАО» Культурный центр «Рублево»";"Западный административный округ";"район Кунцево";"Российская Федерация, город Москва, внутригородская территория муниципальный округ Кунцево, Кунцевская улица, дом 13/6";"2";"Moscow_WiFi_Free";"50";"действует";"открытая сеть";"";"55.730390";"37.413430";"879812983";"";"";
"124";"ГБУК города Москвы «ОКЦ ЗАО» Территориальная клубная система «Ново Переделкино»";"Западный административный округ";"район Ново-Переделкино";"Российская Федерация, город Москва, внутригородская территория муниципальный округ Ново-Переделкино, Лукинская улица, дом 1";"4";"Moscow_WiFi_Free";"50";"действует";"открытая сеть";"";"55.647005";"37.344116";"879812988";"";"";
"125";"ГБУК города Москвы «ОКЦ ЗАО» Территориальная клубная система «Ново Переделкино»";"Западный административный округ";"район Ново-Переделкино";"Российская Федерация, город Москва, внутригородская территория муниципальный округ Ново-Переделкино, Лукинская улица, дом 11";"3";"Moscow_WiFi_Free";"50";"действует";"открытая сеть";"";"55.642737";"37.33679";"879812989";"";"";
"127";"ГБУК города Москвы «ОКЦ ВАО» Централизованная клубная система «Восток»";"Восточный административный округ";"район Перово";"Российская Федерация, город Москва, внутригородская территория муниципальный округ Перово, Мартеновская улица, дом 7";"6";"Moscow_WiFi_Free";"50";"действует";"открытая сеть";"";"55.757850";"37.805572";"879812991";"";"";
"129";"ГБУК города Москвы «ОКЦ ЮАО» Территориальная клубная система «Орехово»";"Южный административный округ";"район Орехово-Борисово Северное";"Российская Федерация, город Москва, внутригородская территория муниципальный округ Орехово-Борисово Северное, улица Маршала Захарова, дом 8, корпус 3";"3";"Moscow_WiFi_Free";"50";"действует";"открытая сеть";"";"55.624916";"37.701736";"879812993";"";"";
"130";"ГБУК города Москвы «Культурный центр «Строгино»";"Северо-Западный административный округ";"район Строгино";"Российская Федерация, город Москва, внутригородская территория муниципальный округ Строгино, улица Маршала Катукова, дом 14, корпус 1";"2";"Moscow_WiFi_Free";"50";"действует";"открытая сеть";"";"55.807936";"37.405597";"879812994";"";"";
"21";"ГБУК города Москвы «ОКЦ СВАО» Культурный центр «Марьина Роща»";"Северо-Восточный административный округ";"район Марьина Роща";"Российская Федерация, город Москва, внутригородская территория муниципальный округ Марьина Роща, Октябрьская улица, дом 91, корпус 1";"1";"Moscow_WiFi_Free";"50";"действует";"открытая сеть";"";"55.797442";"37.612272";"879894711";"";"";
"72";"ГБУК города Москвы «ОКЦ ЗелАО» Культурный центр «Доброволец»";"Зеленоградский административный округ";"район Силино";"Российская Федерация, город Москва, внутригородская территория муниципальный округ Силино, город Зеленоград, корпус 1209";"1";"Moscow_WiFi_Free";"50";"действует";"открытая сеть";"";"55.994219";"37.195310";"879894779";"";"";
"22";"ГБУК города Москвы «ОКЦ ЮАО» Дом культуры «Нагатино»";"Южный административный округ";"район Нагатинский Затон";"Российская Федерация, город Москва, внутригородская территория муниципальный округ Нагатинский Затон, Судостроительная улица, дом 31, корпус 1";"1";"Moscow_WiFi_Free";"50";"действует";"открытая сеть";"";"55.683386";"37.682359";"879894782";"";"";
"48";"ГБУК города Москвы «ОКЦ ЗАО» Территориальная клубная система «Планета»";"Западный административный округ";"район Очаково-Матвеевское";"Российская Федерация, город Москва, внутригородская территория муниципальный округ Очаково-Матвеевское, Матвеевская улица, дом 18, корпус 1";"2";"Moscow_WiFi_Free";"50";"действует";"открытая сеть";"";"55.702652";"37.467958";"879894795";"";"";
"73";"ГБУК города Москвы «ОКЦ ЗАО» Территориальная клубная система «Кунцево»";"Западный административный округ";"район Крылатское";"Российская Федерация, город Москва, внутригородская территория муниципальный округ Крылатское, Рублёвское шоссе, дом 34, корпус 2";"1";"Moscow_WiFi_Free";"50";"действует";"открытая сеть";"";"55.748934";"37.419377";"879894797";"";"";
"49";"ГБУК города Москвы «ОКЦ ЗАО» Территориальная клубная система «Планета»";"Западный административный округ";"район Очаково-Матвеевское";"Российская Федерация, город Москва, внутригородская территория муниципальный округ Очаково-Матвеевское, улица Наташи Ковшовой, дом 5/2";"2";"Moscow_WiFi_Free";"50";"действует";"открытая сеть";"";"55.684082";"37.454923";"879894806";"";"";
"24";"ГБУК города Москвы «ОКЦ ЗАО» Территориальная клубная система «Бригантина»";"Западный административный округ";"район Филёвский Парк";"Российская Федерация, город Москва, внутригородская территория муниципальный округ Филевский Парк, Кастанаевская улица, дом 26";"1";"Moscow_WiFi_Free";"50";"действует";"открытая сеть";"";"55.738095";"37.489464";"879894811";"";"";
"75";"ГБУК города Москвы «ОКЦ ЮЗАО» Культурный центр «Лира»";"Юго-Западный административный округ";"район Южное Бутово";"Российская Федерация, город Москва, внутригородская территория муниципальный округ Южное Бутово, бульвар Адмирала Ушакова, дом 12";"9";"Moscow_WiFi_Free";"50";"действует";"открытая сеть";"";"55.547810";"37.550298";"879894817";"";"";
"77";"ГБУК города Москвы «ОКЦ ЗАО» Территориальная клубная система «Солнцево»";"Западный административный округ";"район Солнцево";"Российская Федерация, город Москва, внутригородская территория муниципальный округ Солнцево, улица Богданова, дом 50";"3";"Moscow_WiFi_Free";"50";"действует";"открытая сеть";"";"55.650434";"37.394422";"879894836";"";"";
"53";"ГБУК города Москвы «ОКЦ ЮВАО» Территориальная клубная система «Спутник»";"Юго-Восточный административный округ";"Нижегородский район";"Российская Федерация, город Москва, внутригородская территория муниципальный округ Нижегородский, Орехово-Зуевский проезд, дом 10";"1";"Moscow_WiFi_Free";"50";"действует";"открытая сеть";"";"55.731212";"37.749328";"879894846";"";"";
"54";"ГБУК города Москвы «ОКЦ СВАО» Территориальная клубная система «Товарищ»";"Северо-Восточный административный округ";"район Отрадное";"Российская Федерация, город Москва, внутригородская территория муниципальный округ Отрадное, Алтуфьевское шоссе, дом 22";"4";"Moscow_WiFi_Free";"50";"действует";"открытая сеть";"";"55.859266";"37.585583";"879894856";"";"";
"80";"ГБУК города Москвы «Дом культуры «Культурный центр»";"Северо-Восточный административный округ";"Останкинский район";"Российская Федерация, город Москва, внутригородская территория муниципальный округ Останкинский, Большая Марьинская улица, дом 15, корпус 2, строение 2";"12";"Moscow_WiFi_Free";"50";"действует";"открытая сеть";"";"55.808047";"37.633302";"879894863";"";"";
"30";"ГБУК города Москвы «ОКЦ СВАО» Дворец культуры «Содружество»";"Северо-Восточный административный округ";"Алексеевский район";"Российская Федерация, город Москва, внутригородская территория муниципальный округ Алексеевский, Рижский проезд, дом 9";"5";"Moscow_WiFi_Free";"50";"действует";"открытая сеть";"";"55.815585";"37.661392";"879894875";"";"";
"83";"ГБУК города Москвы «ОКЦ ЗАО» Территориальная клубная система «Ново Переделкино»";"Западный административный округ";"район Ново-Переделкино";"Российская Федерация, город Москва, внутригородская территория муниципальный округ Ново-Переделкино, Боровское шоссе, дом 40";"2";"Moscow_WiFi_Free";"50";"действует";"открытая сеть";"";"55.638104";"37.350602";"879894883";"";"";
"84";"ГБУК города Москвы «ОКЦ ЮАО» Культурный центр «Братеево»";"Южный административный округ";"район Братеево";"Российская Федерация, город Москва, внутригородская территория муниципальный округ Братеево, Братеевская улица, дом 16, корпус 3";"7";"Moscow_WiFi_Free";"50";"действует";"открытая сеть";"";"55.633399";"37.766747";"879894891";"";"";
"60";"ГБУК города Москвы «ОКЦ ЗАО» Территориальная клубная система «Оптимист»";"Западный административный округ";"район Тропарёво-Никулино";"Российская Федерация, город Москва, внутригородская территория муниципальный округ Тропарево-Никулино, улица 26-ти Бакинских Комиссаров, дом 12, корпус 2";"7";"Moscow_WiFi_Free";"50";"действует";"открытая сеть";"";"55.660424";"37.488601";"879894903";"";"";
"86";"ГБУК города Москвы «ОКЦ ЮАО» Центр культуры и спорта";"Южный административный округ";"район Бирюлёво Западное";"Российская Федерация, город Москва, внутригородская территория муниципальный округ Бирюлево Западное, Булатниковская улица, дом 9Б";"4";"Moscow_WiFi_Free";"50";"действует";"открытая сеть";"";"55.579297";"37.647459";"879894910";"";"";
"62";"ГБУК города Москвы «ОКЦ ЗАО» Территориальная клубная система «Оптимист»";"Западный административный округ";"район Тропарёво-Никулино";"Российская Федерация, город Москва, внутригородская территория муниципальный округ Тропарево-Никулино, Ленинский проспект, дом 150";"2";"Moscow_WiFi_Free";"50";"действует";"открытая сеть";"";"55.654523";"37.491296";"879894920";"";"";
"36";"ГБУК города Москвы «ОКЦ СВАО» Клуб «Молодежный»";"Северо-Восточный административный округ";"район Свиблово";"Российская Федерация, город Москва, внутригородская территория муниципальный округ Свиблово, Тенистый проезд, дом 14";"2";"Moscow_WiFi_Free";"50";"действует";"открытая сеть";"";"55.862793";"37.643058";"879894923";"";"";
"63";"ГБУК города Москвы «ОКЦ ЗАО» Территориальная клубная система «Оптимист»";"Западный административный округ";"район Раменки";"Российская Федерация, город Москва, внутригородская территория муниципальный округ Раменки, улица Лобачевского, дом 100, корпус 3";"1";"Moscow_WiFi_Free";"50";"действует";"открытая сеть";"";"55.685274";"37.483032";"879894933";"";"";
"37";"ГБУК города Москвы «ОКЦ СЗАО» Культурный центр «Митино»";"Северо-Западный административный округ";"район Митино";"Российская Федерация, город Москва, внутригородская территория муниципальный округ Митино, Митинская улица, дом 17, корпус 4";"2";"Moscow_WiFi_Free";"50";"действует";"открытая сеть";"";"55.841781";"37.366502";"879894937";"";"";
"64";"ГБУК города Москвы «ОКЦ ЗАО» Территориальная клубная система «Оптимист»";"Западный административный округ";"район Раменки";"Российская Федерация, город Москва, внутригородская территория муниципальный округ Раменки, улица Лобачевского, дом 100";"1";"Moscow_WiFi_Free";"50";"действует";"открытая сеть";"";"55.684772";"37.481702";"879894943";"";"";
"89";"ГБУК города Москвы «ОКЦ ЮВАО» Культурный центр имени Астахова";"Юго-Восточный административный округ";"район Марьино";"Российская Федерация, город Москва, внутригородская территория муниципальный округ Марьино, улица Верхние Поля, дом 38, корпус 1";"3";"Moscow_WiFi_Free";"50";"действует";"открытая сеть";"";"55.666741";"37.771633";"879894944";"";"";
"38";"ГБУК города Москвы «ОКЦ ЮАО» Культурный центр «Москворечье»";"Южный административный округ";"район Нагатино-Садовники";"Российская Федерация, город Москва, внутригородская территория муниципальный округ Нагатино-Садовники, Каширское шоссе, дом 16";"2";"Moscow_WiFi_Free";"50";"действует";"открытая сеть";"";"55.662187";"37.630499";"879894950";"";"";
"90";"ГБУК города Москвы «ОКЦ ЦАО» Дом культуры «Стимул»";"Центральный административный округ";"Таганский район";"Российская Федерация, город Москва, внутригородская территория муниципальный округ Таганский, Волгоградский проспект, дом 7";"5";"Moscow_WiFi_Free";"50";"действует";"открытая сеть";"";"55.731516";"37.674040";"879894956";"";"";
"39";"ГБУК города Москвы «ОКЦ ЗАО» Территориальная клубная система «Бригантина»";"Западный административный округ";"район Филёвский Парк";"Российская Федерация, город Москва, внутригородская территория муниципальный округ Филевский Парк, улица Василисы Кожиной, дом 24, корпус 1";"2";"Moscow_WiFi_Free";"50";"действует";"открытая сеть";"";"55.734070";"37.490883";"879894961";"";"";
"91";"ГБУК города Москвы «ОКЦ ЮВАО» Дом культуры «Заречье»";"Юго-Восточный административный округ";"район Некрасовка";"город Москва, 1-я Вольская улица, дом 11";"9";"Moscow_WiFi_Free";"50";"действует";"открытая сеть";"";"55.683777";"37.922407";"879894968";"";"";
"67";"ГБУК города Москвы «ОКЦ ЗАО» Территориальная клубная система «Оптимист»";"Западный административный округ";"район Проспект Вернадского";"город Москва, улица Удальцова, дом 17, корпус 1";"3";"Moscow_WiFi_Free";"50";"действует";"открытая сеть";"";"55.673229";"37.513451";"879894977";"";"";
"96";"ГБУК города Москвы «ОКЦ САО» Центр культуры «Гармония»";"Северный административный округ";"Тимирязевский район";"Российская Федерация, город Москва, внутригородская территория муниципальный округ Тимирязевский, Дмитровское шоссе, дом 25, корпус 1";"3";"Moscow_WiFi_Free";"50";"действует";"открытая сеть";"";"55.825108";"37.571228";"879894979";"";"";
"92";"ГБУК города Москвы «ОКЦ ЮАО» Культурный центр «Авангард»";"Южный административный округ";"район Орехово-Борисово Южное";"город Москва, улица Генерала Белова, дом 18";"12";"Moscow_WiFi_Free";"50";"действует";"открытая сеть";"";"55.609039";"37.721004";"879894980";"";"";
"68";"ГБУК города Москвы «ОКЦ ЗАО» Территориальная клубная система «Оптимист»";"Западный административный округ";"район Проспект Вернадского";"Российская Федерация, город Москва, внутригородская территория муниципальный округ Проспект Вернадского, улица Удальцова, дом 69";"1";"Moscow_WiFi_Free";"50";"действует";"открытая сеть";"";"55.679225";"37.499067";"879894987";"";"";
"93";"ГБУК города Москвы «ОКЦ ЗАО» Дом культуры «Аструм»";"Западный административный округ";"район Дорогомилово";"Российская Федерация, город Москва, внутригородская территория муниципальный округ Дорогомилово, улица Генерала Ермолова, дом 6";"4";"Moscow_WiFi_Free";"50";"действует";"открытая сеть";"";"55.737557";"37.516368";"879894989";"";"";
"97";"ГБУК города Москвы «ОКЦ САО» Центр культуры и творчества «Нега»";"Северный административный округ";"Тимирязевский район";"Российская Федерация, город Москва, внутригородская территория муниципальный округ Тимирязевский, Дмитровское шоссе, дом 33, строение 5";"2";"Moscow_WiFi_Free";"50";"действует";"открытая сеть";"";"55.828319";"37.567869";"879894990";"";"";
"43";"ГБУК города Москвы «ОКЦ ЗАО» Территориальная клубная система «Ново Переделкино»";"Западный административный округ";"район Ново-Переделкино";"Российская Федерация, город Москва, внутригородская территория муниципальный округ Ново-Переделкино, Лукинская улица, дом 9, корпус 1";"2";"Moscow_WiFi_Free";"50";"действует";"открытая сеть";"";"55.643023";"37.338259";"879894997";"";"";
"98";"ГБУК города Москвы «ОКЦ СЗАО» Клуб «Феникс»";"Северо-Западный административный округ";"район Щукино";"Российская Федерация, город Москва, внутригородская территория муниципальный округ Щукино, Живописная улица, дом 30, корпус 2";"3";"Moscow_WiFi_Free";"50";"действует";"открытая сеть";"";"55.792048";"37.455696";"879894999";"";"";
"94";"ГБУК города Москвы «ОКЦ ЗАО» Территориальная клубная система «Солнцево»";"Западный административный округ";"район Солнцево";"Российская Федерация, город Москва, внутригородская территория муниципальный округ Солнцево, улица Главмосстроя, дом 9";"2";"Moscow_WiFi_Free";"50";"действует";"открытая сеть";"";"55.655701";"37.406010";"879895000";"";"";
"95";"ГБУК города Москвы «ОКЦ ЗАО» Дом культуры «Аструм»";"Западный административный округ";"район Дорогомилово";"Российская Федерация, город Москва, внутригородская территория муниципальный округ Дорогомилово, улица Дениса Давыдова, дом 3";"2";"Moscow_WiFi_Free";"50";"действует";"открытая сеть";"";"55.739052";"37.519755";"879895006";"";"";
"44";"ГБУК города Москвы «ОКЦ ЗАО» Территориальная клубная система «Ново Переделкино»";"Западный административный округ";"район Ново-Переделкино";"Российская Федерация, город Москва, внутригородская территория муниципальный округ Ново-Переделкино, Приречная улица, дом 5";"2";"Moscow_WiFi_Free";"50";"действует";"открытая сеть";"";"55.643795";"37.371299";"879895007";"";"";
"45";"ГБУК города Москвы «ОКЦ ЗАО» Территориальная клубная система «Ново Переделкино»";"Западный административный округ";"район Ново-Переделкино";"Российская Федерация, город Москва, внутригородская территория муниципальный округ Ново-Переделкино, Чоботовская улица, дом 17, корпус 1";"4";"Moscow_WiFi_Free";"50";"действует";"открытая сеть";"";"55.645182";"37.347970";"879895011";"";"";
"100";"ГБУК города Москвы «ОКЦ СВАО» Территориальная клубная система «Товарищ»";"Северо-Восточный административный округ";"район Северное Медведково";"Российская Федерация, город Москва, внутригородская территория муниципальный округ Северное Медведково, Заревый проезд, дом 12";"3";"Moscow_WiFi_Free";"50";"действует";"открытая сеть";"";"55.886488";"37.656829";"879895016";"";"";
"6";"ГБУК города Москвы «ОКЦ ЦАО» Культурный центр «Новослободский»";"Центральный административный округ";"Тверской район";"Российская Федерация, город Москва, внутригородская территория муниципальный округ Тверской, улица Сущёвский Вал, дом 10А, строение 3";"1";"Moscow_WiFi_Free";"50";"действует";"открытая сеть";"";"55.790909";"37.597010";"879895103";"";"";
"11";"ГБУК города Москвы «Культурный центр «Строгино»";"Северо-Западный административный округ";"район Строгино";"Российская Федерация, город Москва, внутригородская территория муниципальный округ Строгино, улица Исаковского, дом 6, корпус 1";"1";"Moscow_WiFi_Free";"50";"действует";"открытая сеть";"";"55.818169";"37.400962";"879895141";"";"";
"12";"ГБУК города Москвы «ОКЦ ЗАО» Территориальная клубная система «Кунцево»";"Западный административный округ";"район Крылатское";"Российская Федерация, город Москва, внутригородская территория муниципальный округ Крылатское, улица Крылатские Холмы, дом 26, корпус 2";"1";"Moscow_WiFi_Free";"50";"действует";"открытая сеть";"";"55.764151";"37.416601";"879895153";"";"";
"15";"ГБУК города Москвы «ОКЦ ВАО» Централизованная клубная система «Восток»";"Восточный административный округ";"район Новокосино";"Российская Федерация, город Москва, внутригородская территория муниципальный округ Новокосино, Городецкая улица, дом 10Б";"4";"Moscow_WiFi_Free";"50";"действует";"открытая сеть";"";"55.738530";"37.863917";"879895175";"";"";
"19";"ГБУК города Москвы «ОКЦ ЗАО» Территориальная клубная система «Оптимист»";"Западный административный округ";"район Раменки";"Российская Федерация, город Москва, внутригородская территория муниципальный округ Раменки, 1-й Сетуньский проезд, дом 16/2";"1";"Moscow_WiFi_Free";"50";"действует";"открытая сеть";"";"55.733300";"37.538925";"879895213";"";"";
"20";"ГБУК города Москвы «ОКЦ ЗАО» Территориальная клубная система «Фили Давыдково»";"Западный административный округ";"район Фили-Давыдково";"Российская Федерация, город Москва, внутригородская территория муниципальный округ Фили-Давыдково, улица Олеко Дундича, дом 39, корпус 2";"1";"Moscow_WiFi_Free";"50";"действует";"открытая сеть";"";"55.736914";"37.480633";"879895215";"";"";
"121";"ГБУК города Москвы «Государственный музей «Интеграция» имени Островского» Культурный центр на Лазо";"Восточный административный округ";"район Перово";"Российская Федерация, город Москва, внутригородская территория муниципальный округ Перово, улица Лазо, дом 12";"16";"Moscow_WiFi_Free";"50";"действует";"открытая сеть";"";"55.743005";"37.771400";"879897695";"";"";
"122";"ГБУК города Москвы «ОКЦ ЮВАО» Культурный центр «Лидер»";"Юго-Восточный административный округ";"район Выхино-Жулебино";"Российская Федерация, город Москва, внутригородская территория муниципальный округ Выхино-Жулебино, Лермонтовский проспект, дом 2, корпус 2";"6";"Moscow_WiFi_Free";"50";"действует";"открытая сеть";"";"55.703175";"37.844738";"879897702";"";"";
"123";"ГБУК города Москвы «Культурный центр «Вдохновение»";"Юго-Западный административный округ";"район Ясенево";"Российская Федерация, город Москва, внутригородская территория муниципальный округ Ясенево, Литовский бульвар, дом 7";"25";"Moscow_WiFi_Free";"50";"действует";"открытая сеть";"";"55.613768";"37.538799";"879897712";"";"";
"126";"ГБУК города Москвы «ОКЦ ЦАО» Дом культуры «Гайдаровец»";"Центральный административный округ";"Басманный район";"Российская Федерация, город Москва, внутригородская территория муниципальный округ Басманный, Лялин переулок, дом 11-13/1, строение 1";"3";"Moscow_WiFi_Free";"50";"действует";"открытая сеть";"";"55.758980";"37.652571";"879897728";"";"";
"128";"ГБУК города Москвы «ОКЦ СЗАО» Дом культуры «Берендей»";"Северо-Западный административный округ";"район Хорошёво-Мнёвники";"Российская Федерация, город Москва, внутригородская территория муниципальный округ Хорошево-Мневники, проспект Маршала Жукова, дом 76";"7";"Moscow_WiFi_Free";"50";"действует";"открытая сеть";"";"55.779813";"37.451618";"879897746";"";"";
"131";"ГБУК города Москвы «Культурный центр «Строгино»";"Северо-Западный административный округ";"район Строгино";"Российская Федерация, город Москва, внутригородская территория муниципальный округ Строгино, улица Маршала Катукова, дом 15, корпус 2";"3";"Moscow_WiFi_Free";"50";"действует";"открытая сеть";"";"55.810213";"37.406693";"879897769";"";"";
"134";"ГБУК города Москвы «ОКЦ ВАО» Централизованная клубная система «Восток»";"Восточный административный округ";"район Богородское";"Российская Федерация, город Москва, внутригородская территория муниципальный округ Богородское, бульвар Маршала Рокоссовского, дом 3";"2";"Moscow_WiFi_Free";"50";"действует";"открытая сеть";"";"55.808933";"37.726116";"879897795";"";"";
"148";"ГБУК города Москвы «ОКЦ СВАО» Культурный центр «Марьина Роща»";"Северо-Восточный административный округ";"район Марьина Роща";"город Москва, Октябрьская улица, дом 58";"11";"Moscow_WiFi_Free";"50";"действует";"открытая сеть";"";"55.794796";"37.613251";"879897799";"";"";
"149";"ГБУК города Москвы «ОКЦ ЮЗАО» Центр культуры «Сцена»";"Юго-Западный административный округ";"район Коньково";"Российская Федерация, город Москва, внутригородская территория муниципальный округ Коньково, улица Островитянова, дом 15, корпус 1";"2";"Moscow_WiFi_Free";"50";"действует";"открытая сеть";"";"55.639751";"37.506298";"879897808";"";"";
"135";"ГБУК города Москвы «ОКЦ СЗАО» Клуб «Феникс»";"Северо-Западный административный округ";"район Щукино";"Российская Федерация, город Москва, внутригородская территория муниципальный округ Щукино, улица Маршала Рыбалко, дом 10";"3";"Moscow_WiFi_Free";"50";"действует";"открытая сеть";"";"55.798186";"37.489643";"879897810";"";"";
"136";"ГБУК города Москвы «ОКЦ СЗАО» Клуб «Атом»";"Северо-Западный административный округ";"район Хорошёво-Мнёвники";"Российская Федерация, город Москва, внутригородская территория муниципальный округ Хорошево-Мневники, улица Маршала Тухачевского, дом 20, строение 2";"5";"Moscow_WiFi_Free";"50";"действует";"открытая сеть";"";"55.784840";"37.479600";"879897818";"";"";
"139";"ГБУК города Москвы «ОКЦ ЮАО» Центр культуры и спорта";"Южный административный округ";"район Бирюлёво Западное";"Российская Федерация, город Москва, внутригородская территория муниципальный округ Бирюлево Западное, Медынская улица, дом 14, корпус 1";"4";"Moscow_WiFi_Free";"50";"действует";"открытая сеть";"";"55.583118";"37.646768";"879897836";"";"";
"153";"ГБУК города Москвы «ОКЦ СЗАО» Культурный центр «Митино»";"Северо-Западный административный округ";"район Митино";"Российская Федерация, город Москва, внутригородская территория муниципальный округ Митино, Пятницкое шоссе, дом 45";"2";"Moscow_WiFi_Free";"50";"действует";"открытая сеть";"";"55.857710";"37.349264";"879897837";"";"";
"154";"ГБУК города Москвы «Дом Романса»";"Северо-Западный административный округ";"район Щукино";"Российская Федерация, город Москва, внутригородская территория муниципальный округ Щукино, улица Расплетина, дом 2";"3";"Moscow_WiFi_Free";"50";"действует";"открытая сеть";"";"55.789315";"37.479780";"879897838";"";"";
"141";"ГБУК города Москвы «ОКЦ СЗАО» Культурный центр «Митино»";"Северо-Западный административный округ";"район Митино";"Российская Федерация, город Москва, внутригородская территория муниципальный округ Митино, Митинская улица, дом 31, корпус 1";"11";"Moscow_WiFi_Free";"50";"действует";"открытая сеть";"";"55.846366";"37.355812";"879897839";"";"";
"155";"ГБУК города Москвы «ОКЦ ТиНАО» Дом культуры «Юбилейный»";"Троицкий административный округ";"поселение Роговское";"город Москва, поселение Роговское, посёлок Рогово, Юбилейная улица, дом 1А";"10";"Moscow_WiFi_Free";"50";"действует";"открытая сеть";"";"55.214650";"37.074190";"879897840";"";"";
"143";"ГБУК города Москвы «ОКЦ СЗАО» Дом культуры «Берендей»";"Северо-Западный административный округ";"район Хорошёво-Мнёвники";"Российская Федерация, город Москва, внутригородская территория муниципальный округ Хорошево-Мневники, улица Народного Ополчения, дом 12, корпус 4";"5";"Moscow_WiFi_Free";"50";"действует";"открытая сеть";"";"55.772097";"37.479654";"879897841";"";"";
"156";"ГБУК города Москвы «ОКЦ ЗАО» Культурный центр «Рублево»";"Западный административный округ";"район Кунцево";"Российская Федерация, город Москва, внутригородская территория муниципальный округ Кунцево, Рублёвское шоссе, дом 109, корпус 6";"2";"Moscow_WiFi_Free";"50";"действует";"открытая сеть";"";"55.744728";"37.417949";"879897842";"";"";
"157";"ГБУК города Москвы «ОКЦ ТиНАО» Дом культуры «Пересвет»";"Новомосковский административный округ";"поселение Рязановское";"Российская Федерация, город Москва, внутригородская территория поселение Рязановское, посёлок Знамя Октября, дом 31, строение 3";"11";"Moscow_WiFi_Free";"50";"действует";"открытая сеть";"";"55.473306";"37.541674";"879897843";"";"";
"158";"ГБУК города Москвы «ОКЦ ТиНАО» Дом культуры «Десна»";"Новомосковский административный округ";"поселение Рязановское";"город Москва, поселение Рязановское, посёлок Фабрики имени 1 Мая, дом 37";"14";"Moscow_WiFi_Free";"50";"действует";"открытая сеть";"";"55.487458";"37.498635";"879897844";"";"";
"159";"ГБУК города Москвы «Государственный музей «Интеграция» имени Островского» Культурный центр на Саянской";"Восточный административный округ";"район Ивановское";"Российская Федерация, город Москва, внутригородская территория муниципальный округ Ивановское, Саянская улица, дом 6Б";"8";"Moscow_WiFi_Free";"50";"действует";"открытая сеть";"";"55.767078";"37.827769";"879897845";"";"";
"160";"ГБУК города Москвы «ОКЦ СЗАО» Культурный центр «Салют»";"Северо-Западный административный округ";"район Южное Тушино";"Российская Федерация, город Москва, внутригородская территория муниципальный округ Южное Тушино, улица Свободы, дом 37";"19";"Moscow_WiFi_Free";"50";"действует";"открытая сеть";"";"55.840725";"37.454007";"879897846";"";"";
"162";"ГБУК города Москвы «ОКЦ ЦАО» Дом культуры «Стимул»";"Центральный административный округ";"Таганский район";"Российская Федерация, город Москва, внутригородская территория муниципальный округ Таганский, Сибирский проезд, дом 2, строение 5";"8";"Moscow_WiFi_Free";"50";"действует";"открытая сеть";"";"55.732661";"37.684209";"879897847";"";"";
"163";"ГБУК города Москвы «ОКЦ ЗАО» Территориальная клубная система «Кунцево»";"Западный административный округ";"Можайский район";"Российская Федерация, город Москва, внутригородская территория муниципальный округ Можайский, Сколковское шоссе, дом 32, корпус 2";"3";"Moscow_WiFi_Free";"50";"действует";"открытая сеть";"";"55.707035";"37.400854";"879897848";"";"";
"165";"ГБУК города Москвы «ОКЦ ВАО» Централизованная клубная система «Восток»";"Восточный административный округ";"район Новокосино";"Российская Федерация, город Москва, внутригородская территория муниципальный округ Новокосино, Суздальская улица, дом 38, корпус 2";"2";"Moscow_WiFi_Free";"50";"действует";"открытая сеть";"";"55.745498";"37.872730";"879897849";"";"";
"166";"ГБУК города Москвы «ОКЦ ЮАО» Центр культуры и спорта";"Южный административный округ";"район Чертаново Северное";"Российская Федерация, город Москва, внутригородская территория муниципальный округ Чертаново Северное, Сумской проезд, дом 6А";"8";"Moscow_WiFi_Free";"50";"действует";"открытая сеть";"";"55.635924";"37.609613";"879897850";"";"";
"168";"ГБУК города Москвы «ОКЦ ЮЗАО» Центр культуры и досуга «Академический»";"Юго-Западный административный округ";"Академический район";"Российская Федерация, город Москва, внутригородская территория муниципальный округ Академический, улица Шверника, дом 13, корпус 2";"2";"Moscow_WiFi_Free";"50";"действует";"открытая сеть";"";"55.692521";"37.589087";"879897851";"";"";
"175";"ГБУДО города Москвы «Детская музыкальная школа имени Алексеева»";"Центральный административный округ";"Таганский район";"Российская Федерация, город Москва, внутригородская территория муниципальный округ Таганский, Николоямская улица, дом 42";"5";"Moscow_WiFi_Free";"50";"действует";"открытая сеть";"";"55.747083";"37.659991";"879897852";"";"";
"184";"ГБУК города Москвы «ОКЦ ЦАО» Культурный центр «Новослободский»";"Центральный административный округ";"Тверской район";"город Москва, улица Сущёвский Вал, дом 10А, строение 2";"3";"Moscow_WiFi_Free";"50";"действует";"открытая сеть";"";"55.790130";"37.594144";"879897853";"";"";
"187";"ГБУДО города Москвы «Детская школа искусств №18»";"Юго-Западный административный округ";"Гагаринский район";"Российская Федерация, город Москва, внутригородская территория муниципальный округ Гагаринский, Университетский проспект, дом 5";"10";"Moscow_WiFi_Free";"50";"действует";"открытая сеть";"";"55.695824";"37.551367";"879897854";"";"";
"188";"ГБУДО города Москвы «Детская музыкальная школа имени Молчанова»";"Северный административный округ";"район Ховрино";"Российская Федерация, город Москва, внутригородская территория муниципальный округ Ховрино, Клинская улица, дом 8А";"14";"Moscow_WiFi_Free";"50";"действует";"открытая сеть";"";"55.869612";"37.497917";"879897855";"";"";
"190";"ГБУДО города Москвы «Детская школа искусств «Родник»";"Южный административный округ";"район Орехово-Борисово Южное";"Российская Федерация, город Москва, внутригородская территория муниципальный округ Орехово-Борисово Южное, Ясеневая улица, дом 31, корпус 3";"17";"Moscow_WiFi_Free";"50";"действует";"открытая сеть";"";"55.606858";"37.736860";"879897865";"";"";
"102";"ГАУК города Москвы «Культурный центр «Зеленоград»";"Зеленоградский административный округ";"район Крюково";"Российская Федерация, город Москва, внутригородская территория муниципальный округ Крюково, город Зеленоград, корпус 1410";"2";"Moscow_WiFi_Free";"50";"действует";"открытая сеть";"";"55.986485";"37.146675";"879897950";"";"";
"103";"ГБУК города Москвы «ОКЦ ЗелАО» Культурный центр «Доброволец»";"Зеленоградский административный округ";"район Крюково";"Российская Федерация, город Москва, внутригородская территория муниципальный округ Крюково, город Зеленоград, корпус 1414";"3";"Moscow_WiFi_Free";"50";"действует";"открытая сеть";"";"55.987170";"37.149748";"879897958";"";"";
"105";"ГАУК города Москвы «Культурный центр «Зеленоград»";"Зеленоградский административный округ";"район Крюково";"Российская Федерация, город Москва, внутригородская территория муниципальный округ Крюково, город Зеленоград, корпус 1444";"2";"Moscow_WiFi_Free";"50";"действует";"открытая сеть";"";"55.986072";"37.151446";"879897966";"";"";
"106";"ГБУК города Москвы «ОКЦ ЗелАО» Культурный центр «Доброволец»";"Зеленоградский административный округ";"район Савёлки";"Российская Федерация, город Москва, внутригородская территория муниципальный округ Савелки, город Зеленоград, земельный участок 514А";"7";"Moscow_WiFi_Free";"50";"действует";"открытая сеть";"";"55.998237";"37.234791";"879897974";"";"";
"108";"ГБУК города Москвы «ОКЦ САО» Клуб «Огонёк»";"Северный административный округ";"район Ховрино";"Российская Федерация, город Москва, внутригородская территория муниципальный округ Ховрино, Зеленоградская улица, дом 33А";"5";"Moscow_WiFi_Free";"50";"действует";"открытая сеть";"";"55.875642";"37.491647";"879897991";"";"";
"109";"ГБУК города Москвы «ОКЦ ЦАО» Дом культуры «Гайдаровец»";"Центральный административный округ";"Басманный район";"Российская Федерация, город Москва, внутригородская территория муниципальный округ Басманный, улица Земляной Вал, дом 27, строение 3";"10";"Moscow_WiFi_Free";"50";"действует";"открытая сеть";"";"55.759147";"37.658814";"879897998";"";"";
"114";"ГБУК города Москвы «ОКЦ ЮАО» Дом культуры «Гармония»";"Южный административный округ";"район Чертаново Южное";"Российская Федерация, город Москва, внутригородская территория муниципальный округ Чертаново Южное, Кировоградская улица, дом 44Б";"3";"Moscow_WiFi_Free";"50";"действует";"открытая сеть";"";"55.597297";"37.594935";"879898036";"";"";
"116";"ГБУК города Москвы «ОКЦ ЮАО» Центр культуры и спорта";"Южный административный округ";"район Чертаново Центральное";"Российская Федерация, город Москва, внутригородская территория муниципальный округ Чертаново Центральное, улица Красного Маяка, дом 13А, корпус 7";"2";"Moscow_WiFi_Free";"50";"действует";"открытая сеть";"";"55.609365";"37.584146";"879898054";"";"";
"117";"ГБУК города Москвы «ОКЦ ЮВАО» Культурный центр имени Астахова";"Юго-Восточный административный округ";"район Люблино";"Российская Федерация, город Москва, внутригородская территория муниципальный округ Люблино, Краснодарская улица, дом 21";"6";"Moscow_WiFi_Free";"50";"действует";"открытая сеть";"";"55.677890";"37.750415";"879898062";"";"";
"118";"ГБУК города Москвы «Московский продюсерский центр»";"Южный административный округ";"Нагорный район";"Российская Федерация, город Москва, внутригородская территория муниципальный округ Нагорный, Криворожская улица, дом 25А";"3";"Moscow_WiFi_Free";"50";"действует";"открытая сеть";"";"55.669041";"37.608472";"879898070";"";"";
"119";"ГБУК города Москвы «ОКЦ ЗАО» Территориальная клубная система «Кунцево»";"Западный административный округ";"район Крылатское";"Российская Федерация, город Москва, внутригородская территория муниципальный округ Крылатское, улица Крылатские Холмы, дом 49";"3";"Moscow_WiFi_Free";"50";"действует";"открытая сеть";"";"55.764014";"37.412981";"879898073";"";"";
"147";"ГБУК города Москвы «Центр культуры и искусства «Меридиан»";"Юго-Западный административный округ";"Обручевский район";"Российская Федерация, город Москва, внутригородская территория муниципальный округ Обручевский, улица Обручева, дом 11";"6";"Moscow_WiFi_Free";"50";"действует";"открытая сеть";"";"55.660022";"37.514993";"879917138";"";"";
"185";"ГБУК города Москвы «ОКЦ ТиНАО» Дом культуры «Кленово»";"Троицкий административный округ";"поселение Кленовское";"Российская Федерация, город Москва, внутригородская территория поселение Кленовское, село Кленово, Центральная улица, дом 3";"1";"Moscow_WiFi_Free";"50";"действует";"открытая сеть";"";"55.323825";"37.351466";"894817426";"";"";
"192";"ГБУК города Москвы «Московский музыкальный театр для детей и молодежи «Экспромт»";"Центральный административный округ";"Басманный район";"Российская Федерация, город Москва, внутригородская территория муниципальный округ Басманный, улица Макаренко, дом 2/21, строение 2";"3";"Moscow_WiFi_Free";"50";"действует";"открытая сеть";"";"55.761092";"37.647163";"1015100381";"";"";
"193";"ГБУК города Москвы «Московский академический театр имени Маяковского»";"Центральный административный округ";"Мещанский район";"Российская Федерация, город Москва, внутригородская территория муниципальный округ Мещанский, Пушкарёв переулок, дом 21/24";"4";"Moscow_WiFi_Free";"50";"действует";"открытая сеть";"";"55.769059";"37.630715";"1015100382";"";"";
"194";"ГБУДО города Москвы «Детская музыкальная школа имени Караева»";"Южный административный округ";"район Нагатинский Затон";"Российская Федерация, город Москва, внутригородская территория муниципальный округ Нагатинский Затон, Нагатинская набережная, дом 54";"6";"Moscow_WiFi_Free";"50";"действует";"открытая сеть";"";"55.688913";"37.684542";"1015100383";"";"";
"195";"ГБУК города Москвы «ОКЦ СЗАО» Клуб «Феникс»";"Северо-Западный административный округ";"район Щукино";"Российская Федерация, город Москва, внутригородская территория муниципальный округ Щукино, Авиационная улица, дом 19";"2";"Moscow_WiFi_Free";"50";"действует";"открытая сеть";"";"55.809803";"37.475225";"1015100384";"";"";
"196";"ГБУК города Москвы «ОКЦ СЗАО» Клуб «Феникс»";"Северо-Западный административный округ";"район Щукино";"город Москва, улица Маршала Бирюзова, дом 12";"1";"Moscow_WiFi_Free";"50";"действует";"открытая сеть";"";"55.793328";"37.494458";"1015100385";"";"";
"197";"ГБУК города Москвы «ОКЦ СЗАО» Клуб «Феникс»";"Северо-Западный административный округ";"район Щукино";"Российская Федерация, город Москва, внутригородская территория муниципальный округ Щукино, улица Маршала Василевского, дом 11, корпус 1";"4";"Moscow_WiFi_Free";"50";"действует";"открытая сеть";"";"55.805604";"37.468470";"1015100386";"";"";
"198";"ГБУК города Москвы «ОКЦ ЗелАО» Экспериментальный центр социальной адаптации и творческого развития детей и подростков «Творческий лицей»";"Зеленоградский административный округ";"район Старое Крюково";"Российская Федерация, город Москва, внутригородская территория муниципальный округ Старое Крюково, город Зеленоград, корпус 832";"1";"Moscow_WiFi_Free";"50";"действует";"открытая сеть";"";"55.981510";"37.177596";"1015100387";"";"";
"199";"ГБУК города Москвы «ОКЦ ЗелАО» Экспериментальный центр социальной адаптации и творческого развития детей и подростков «Творческий лицей»";"Зеленоградский административный округ";"район Старое Крюково";"Российская Федерация, город Москва, внутригородская территория муниципальный округ Старое Крюково, город Зеленоград, корпус 813";"4";"Moscow_WiFi_Free";"50";"действует";"открытая сеть";"";"55.976806";"37.186947";"1015100388";"";"";
"200";"ГБУДО города Москвы «Детская музыкальная школа №100»";"Центральный административный округ";"Мещанский район";"город Москва, Большая Переяславская улица, дом 8А";"7";"Moscow_WiFi_Free";"50";"действует";"открытая сеть";"";"55.781539";"37.643156";"1015100389";"";"";
"201";"ГБУДО города Москвы «Детская музыкальная школа имени Табакова»";"Западный административный округ";"район Тропарёво-Никулино";"Российская Федерация, город Москва, внутригородская территория муниципальный округ Тропарево-Никулино, улица 26-ти Бакинских Комиссаров, дом 18";"7";"Moscow_WiFi_Free";"50";"действует";"открытая сеть";"";"55.662242";"37.486724";"1015211807";"";"";
"202";"ГБУК города Москвы «Московский театр «Мастерская Фоменко»";"Западный административный округ";"район Дорогомилово";"Российская Федерация, город Москва, внутригородская территория муниципальный округ Дорогомилово, набережная Тараса Шевченко, дом 29";"5";"Moscow_WiFi_Free";"50";"действует";"открытая сеть";"";"55.743456";"37.535394";"1015211808";"";"";
"203";"ГБУК города Москвы «Московская дирекция по развитию культурных центров»";"Центральный административный округ";"Мещанский район";"Российская Федерация, город Москва, внутригородская территория муниципальный округ Мещанский, Трифоновская улица, дом 61, корпус 1";"5";"Moscow_WiFi_Free";"50";"действует";"открытая сеть";"";"55.790418";"37.632978";"1015211809";"";"";
"204";"ГБУК города Москвы «Московский театр на Таганке»";"Центральный административный округ";"Таганский район";"город Москва, улица Земляной Вал, дом 76/21, строение 1";"6";"Moscow_WiFi_Free";"50";"действует";"открытая сеть";"";"55.743178";"37.653864";"1078705422";"";"";
"205";"ГБОУДО города Москвы «Дворец творчества детей и молодежи «Преображенский»";"Восточный административный округ";"район Преображенское";"Российская Федерация, город Москва, внутригородская территория муниципальный округ Преображенское, Большая Черкизовская улица, дом 15";"6";"Moscow_WiFi_Free";"50";"действует";"открытая сеть";"";"55.802422";"37.733015";"1078705423";"";"";
"206";"ГБУДО города Москвы «Детская школа искусств имени Крайнева»";"Юго-Западный административный округ";"район Южное Бутово";"Российская Федерация, город Москва, внутригородская территория муниципальный округ Южное Бутово, улица Адмирала Лазарева, дом 57";"2";"Moscow_WiFi_Free";"50";"действует";"открытая сеть";"";"55.539232";"37.510152";"1078705558";"";"";
"211";"ГБУДО города Москвы «Детская школа искусств имени Балакирева»";"Юго-Восточный административный округ";"район Выхино-Жулебино";"Российская Федерация, город Москва, внутригородская территория муниципальный округ Выхино-Жулебино, Ферганская улица, дом 23";"34";"Moscow_WiFi_Free";"50";"действует";"открытая сеть";"";"55.704139";"37.823089";"1103080646";"";"";
"212";"ГБУДО города Москвы «Музыкальная школа №96»";"Западный административный округ";"район Филёвский Парк";"Российская Федерация, город Москва, внутригородская территория муниципальный округ Фили-Давыдково, Малая Филёвская улица, дом 8, корпус 1";"3";"Moscow_WiFi_Free";"50";"действует";"открытая сеть";"";"55.751857";"37.509271";"1103080650";"";"";
"213";"ГБУК города Москвы «ОКЦ ВАО» Культурный центр «Акулово»";"Восточный административный округ";"район Восточный";"Российская Федерация, город Москва, внутригородская территория муниципальный округ Восточный, посёлок Акулово, дом 20";"5";"Moscow_WiFi_Free";"50";"действует";"открытая сеть";"";"56.007941";"37.795493";"1103080653";"";"";
"214";"ГБУК города Москвы «Московский драматический театр «Сфера»";"Центральный административный округ";"Тверской район";"Российская Федерация, город Москва, внутригородская территория муниципальный округ Тверской, улица Каретный Ряд, дом 3, строение 3";"4";"Moscow_WiFi_Free";"50";"действует";"открытая сеть";"";"55.770112";"37.608904";"1103080655";"";"";
"215";"ГБУДО города Москвы «Московская городская объединенная детская школа искусств «Кусково» Детская музыкальная школа имени Листа";"Восточный административный округ";"район Вешняки";"Российская Федерация, город Москва, внутригородская территория муниципальный округ Вешняки, Косинская улица, дом 10Б";"14";"Moscow_WiFi_Free";"50";"действует";"открытая сеть";"";"55.724789";"37.835899";"1103080659";"";"";
"216";"ГБУК города Москвы «Московский культурный фольклорный центр под руководством Людмилы Рюминой»";"Западный административный округ";"район Филёвский Парк";"Российская Федерация, город Москва, внутригородская территория муниципальный округ Филевский Парк, улица Барклая, дом 9";"5";"Moscow_WiFi_Free";"50";"действует";"открытая сеть";"";"55.741292";"37.499642";"1103080660";"";"";
"217";"ГБУК города Москвы «Дом Романса»";"Северо-Западный административный округ";"район Щукино";"Российская Федерация, город Москва, внутригородская территория муниципальный округ Щукино, улица Маршала Василевского, дом 1, корпус 1";"7";"Moscow_WiFi_Free";"50";"действует";"открытая сеть";"";"55.802543";"37.474830";"1103080663";"";"";
"218";"ГБУДО города Москвы «Детская музыкальная школа имени Одоевского»";"Центральный административный округ";"Красносельский район";"Российская Федерация, город Москва, внутригородская территория муниципальный округ Красносельский, Докучаев переулок, дом 7, строение 1";"8";"Moscow_WiFi_Free";"50";"действует";"открытая сеть";"";"55.774482";"37.642671";"1103080667";"";"";
"219";"ГБУДО города Москвы «Детская музыкальная школа имени Одоевского»";"Центральный административный округ";"Красносельский район";"Российская Федерация, город Москва, внутригородская территория муниципальный округ Красносельский, Докучаев переулок, дом 7, строение 2";"2";"Moscow_WiFi_Free";"50";"действует";"открытая сеть";"";"55.774694";"37.642842";"1103080670";"";"";
"207";"ГБУК города Москвы «ОКЦ САО» Центр культуры «Гармония»";"Северный административный округ";"Войковский район";"Российская Федерация, город Москва, внутригородская территория муниципальный округ Войковский, Ленинградское шоссе, дом 9, корпус 1";"4";"Moscow_WiFi_Free";"50";"действует";"открытая сеть";"";"55.816632";"37.498591";"1103080689";"";"";
"208";"ГБУДО города Москвы «Детская школа искусств имени Рубинштейна»";"Центральный административный округ";"Красносельский район";"Российская Федерация, город Москва, внутригородская территория муниципальный округ Красносельский, Верхняя Красносельская улица, дом 7А, строение 1";"5";"Moscow_WiFi_Free";"50";"действует";"открытая сеть";"";"55.785422";"37.662030";"1103080693";"";"";
"209";"ГБУДО города Москвы «Московская городская объединенная детская школа искусств «Кусково» Детская школа искусств имени Римского Корсакова";"Восточный административный округ";"район Новогиреево";"Российская Федерация, город Москва, внутригородская территория муниципальный округ Новогиреево, Новогиреевская улица, дом 58";"9";"Moscow_WiFi_Free";"50";"действует";"открытая сеть";"";"55.747358";"37.801134";"1103080696";"";"";
"210";"ГБУДО города Москвы «Детская музыкальная школа имени Гайдна»";"Восточный административный округ";"район Новокосино";"Российская Федерация, город Москва, внутригородская территория муниципальный округ Новокосино, Новокосинская улица, дом 26";"25";"Moscow_WiFi_Free";"50";"действует";"открытая сеть";"";"55.740938";"37.862938";"1103080698";"";"";
"220";"ГБУДО города Москвы «Детская школа искусств №6»";"Северный административный округ";"район Коптево";"Российская Федерация, город Москва, внутригородская территория муниципальный округ Коптево, улица Генерала Рычагова, дом 20А";"7";"Moscow_WiFi_Free";"50";"действует";"открытая сеть";"";"55.840563";"37.539742";"1103098039";"";"";
"221";"ГБУДО города Москвы «Детская музыкальная школа имени Гилельса»";"Южный административный округ";"Нагорный район";"Российская Федерация, город Москва, внутригородская территория муниципальный округ Нагорный, Черноморский бульвар, дом 1, корпус 2";"5";"Moscow_WiFi_Free";"50";"действует";"открытая сеть";"";"55.643581";"37.614635";"1125173930";"";"";
"222";"ГБУК города Москвы «ОКЦ САО» Центр культуры «Гармония»";"Северный административный округ";"район Восточное Дегунино";"Российская Федерация, город Москва, внутригородская территория муниципальный округ Восточное Дегунино, Дубнинская улица, дом 73А";"4";"Moscow_WiFi_Free";"50";"действует";"открытая сеть";"";"55.882783";"37.556613";"1139326982";"";"";
"224";"ГБУДО города Москвы «Детская школа искусств имени Крайнева»";"Юго-Западный административный округ";"район Южное Бутово";"Российская Федерация, город Москва, внутригородская территория муниципальный округ Южное Бутово, бульвар Адмирала Ушакова, дом 11";"6";"Moscow_WiFi_Free";"50";"действует";"открытая сеть";"";"55.546083";"37.549193";"1139326984";"";"";
"225";"ГБУДО города Москвы «Детская школа искусств имени Саульского»";"Западный административный округ";"Можайский район";"Российская Федерация, город Москва, внутригородская территория муниципальный округ Можайский, Козлова улица, дом 48";"10";"Moscow_WiFi_Free";"50";"действует";"открытая сеть";"";"55.716620";"37.447943";"1139326985";"";"";
"226";"ГБУДО города Москвы «Детская музыкальная школа имени Чайковского»";"Южный административный округ";"район Чертаново Северное";"Российская Федерация, город Москва, внутригородская территория муниципальный округ Чертаново Северное, Днепропетровская улица, дом 8А";"10";"Moscow_WiFi_Free";"50";"действует";"открытая сеть";"";"55.624479";"37.592015";"1139326986";"";"";
"227";"ГБУДО города Москвы «Детская музыкальная хоровая школа имени Радченко»";"Центральный административный округ";"Таганский район";"Российская Федерация, город Москва, внутригородская территория муниципальный округ Таганский, Воронцовская улица, дом 30А";"7";"Moscow_WiFi_Free";"50";"действует";"открытая сеть";"";"55.735677";"37.660018";"1139326987";"";"";
"223";"ГБУК города Москвы «Московский государственный академический театр танца «Гжель»";"Северо-Западный административный округ";"район Покровское-Стрешнево";"город Москва, улица Свободы, дом 10";"6";"Moscow_WiFi_Free";"50";"действует";"открытая сеть";"";"55.829679";"37.453926";"1139326993";"";"";
"233";"ГБУК города Москвы «ОКЦ СВАО» Московский многофункциональный культурный центр";"Северо-Восточный административный округ";"Ярославский район";"город Москва, Ярославское шоссе, дом 124";"6";"Moscow_WiFi_Free";"50";"действует";"открытая сеть";"";"55.870718";"37.713719";"1266596418";"";"";
"230";"ГБУДО города Москвы «Детская художественная школа «Солнцево»";"Западный административный округ";"район Солнцево";"Российская Федерация, город Москва, внутригородская территория муниципальный округ Солнцево, улица 50 лет Октября, дом 29Б";"10";"Moscow_WiFi_Free";"50";"действует";"открытая сеть";"";"55.657850";"37.410861";"1266596421";"";"";
"231";"ГБУК города Москвы «ОКЦ ЮАО» Территориальная клубная система «Орехово»";"Южный административный округ";"район Орехово-Борисово Южное";"Российская Федерация, город Москва, внутригородская территория муниципальный округ Орехово-Борисово Южное, Домодедовская улица, дом 24, корпус 2";"6";"Moscow_WiFi_Free";"50";"действует";"открытая сеть";"";"55.607906";"37.708572";"1266596422";"";"";
"232";"ГБУДО города Москвы «Детская музыкальная школа имени Майкапара»";"Северо-Западный административный округ";"район Строгино";"Российская Федерация, город Москва, внутригородская территория муниципальный округ Строгино, улица Маршала Катукова, дом 19, корпус 3";"4";"Moscow_WiFi_Free";"50";"действует";"открытая сеть";"";"55.807385";"37.410960";"1266596423";"";"";
"228";"ГБУДО города Москвы «Детская школа искусств «Центр»";"Юго-Восточный административный округ";"район Кузьминки";"Российская Федерация, город Москва, внутригородская территория муниципальный округ Кузьминки, Волгоградский проспект, дом 109, корпус 6";"6";"Moscow_WiFi_Free";"50";"действует";"открытая сеть";"";"55.709064";"37.760611";"1266596455";"";"";
"229";"ГБУДО города Москвы «Детская музыкальная школа имени Хачатуряна»";"Северный административный округ";"район Ховрино";"Российская Федерация, город Москва, внутригородская территория муниципальный округ Ховрино, Фестивальная улица, дом 61Б";"2";"Moscow_WiFi_Free";"50";"действует";"открытая сеть";"";"55.862934";"37.496506";"1266596456";"";"";
"234";"ГБУДО города Москвы «Московская городская объединенная детская школа искусств «Кусково» Детская музыкальная школа имени Будашкина";"Восточный административный округ";"район Перово";"Российская Федерация, город Москва, внутригородская территория муниципальный округ Перово, 1-я Владимирская улица, дом 29, корпус 1";"4";"Moscow_WiFi_Free";"50";"действует";"открытая сеть";"";"55.752936";"37.778434";"2351321772";"";"";
"235";"ГБУДО города Москвы «Московская городская объединенная детская школа искусств «Кусково» Детская музыкальная школа имени Шостаковича";"Восточный административный округ";"район Вешняки";"Российская Федерация, город Москва, внутригородская территория муниципальный округ Вешняки, аллея Жемчуговой, дом 1Б";"18";"Moscow_WiFi_Free";"50";"действует";"открытая сеть";"";"55.733092";"37.816846";"2351321773";"";"";
"236";"ГБУДО города Москвы «Детская школа искусств №10»";"Южный административный округ";"район Братеево";"Российская Федерация, город Москва, внутригородская территория муниципальный округ Братеево, Братеевская улица, дом 21, корпус 2";"6";"Moscow_WiFi_Free";"50";"действует";"открытая сеть";"";"55.634364";"37.751592";"2351321774";"";"";
"242";"ГБУДО города Москвы «Детская школа искусств №10»";"Южный административный округ";"район Братеево";"Российская Федерация, город Москва, внутригородская территория муниципальный округ Братеево, Братеевская улица, дом 25, корпус 2";"4";"Moscow_WiFi_Free";"50";"действует";"открытая сеть";"";"55.633826";"37.752850";"2351321775";"";"";
"243";"ГБУК города Москвы «ОКЦ ВАО» Культурный центр «Акулово»";"Восточный административный округ";"район Восточный";"город Москва, посёлок Акулово, дом 18А";"4";"Moscow_WiFi_Free";"50";"действует";"открытая сеть";"";"56.005450";"37.794846";"2351321776";"";"";
"244";"ГБУК города Москвы «ОКЦ ВАО» Культурный центр «Акулово»";"Восточный административный округ";"район Восточный";"Российская Федерация, город Москва, внутригородская территория муниципальный округ Восточный, посёлок Акулово, дом 25";"5";"Moscow_WiFi_Free";"50";"действует";"открытая сеть";"";"56.005621";"37.797559";"2351321777";"";"";
"245";"ГБУДО города Москвы «Детская музыкальная школа имени Осипова»";"Центральный административный округ";"Мещанский район";"Российская Федерация, город Москва, внутригородская территория муниципальный округ Мещанский, проспект Мира, дом 71, строение 3";"10";"Moscow_WiFi_Free";"50";"действует";"открытая сеть";"";"55.788252";"37.633769";"2351321778";"";"";
"246";"ГБУК города Москвы «ОКЦ СВАО» Культурный центр «Северный»";"Северо-Восточный административный округ";"район Северный";"Российская Федерация, город Москва, внутригородская территория муниципальный округ Северный, 3-я Северная линия, дом 17";"7";"Moscow_WiFi_Free";"50";"действует";"открытая сеть";"";"55.939842";"37.553478";"2351321779";"";"";
"247";"ГБУДО города Москвы «Детская музыкальная школа имени Игумнова»";"Центральный административный округ";"Басманный район";"Российская Федерация, город Москва, внутригородская территория муниципальный округ Басманный, улица Покровка, дом 39, строение 3";"8";"Moscow_WiFi_Free";"50";"действует";"открытая сеть";"";"55.762373";"37.651268";"2351321780";"";"";
"248";"ГБУДО города Москвы «Детская хореографическая школа «Фуэте»";"Зеленоградский административный округ";"район Матушкино";"Российская Федерация, город Москва, внутригородская территория муниципальный округ Матушкино, город Зеленоград, корпус 127";"8";"Moscow_WiFi_Free";"50";"действует";"открытая сеть";"";"56.004157";"37.207186";"2351321781";"";"";
"249";"ГБУДО города Москвы «Детская музыкальная школа имени Нейгауза»";"Юго-Восточный административный округ";"Рязанский район";"Российская Федерация, город Москва, внутригородская территория муниципальный округ Рязанский, улица Михайлова, дом 20, корпус 2";"9";"Moscow_WiFi_Free";"50";"действует";"открытая сеть";"";"55.725990";"37.767124";"2351321782";"";"";
"250";"ГБУК города Москвы «Московский театр «Театр Луны»";"Центральный административный округ";"район Замоскворечье";"Российская Федерация, город Москва, внутригородская территория муниципальный округ Замоскворечье, улица Малая Ордынка, дом 31, строение 1";"8";"Moscow_WiFi_Free";"50";"действует";"открытая сеть";"";"55.733624";"37.626008";"2351321783";"";"";
"251";"ГБУК города Москвы «Московский театр «Театр Луны» Детская театральная студия «Маленькая Луна»";"Центральный административный округ";"район Замоскворечье";"Российская Федерация, город Москва, внутригородская территория муниципальный округ Замоскворечье, улица Малая Ордынка, дом 33, строение 1";"3";"Moscow_WiFi_Free";"50";"действует";"открытая сеть";"";"55.733371";"37.625882";"2351321784";"";"";
"252";"ГБУДО города Москвы «Детская художественная школа имени Серова»";"Центральный административный округ";"район Хамовники";"Российская Федерация, город Москва, внутригородская территория муниципальный округ Хамовники, улица Пречистенка, дом 32/1, строение 1";"7";"Moscow_WiFi_Free";"50";"действует";"открытая сеть";"";"55.740624";"37.590686";"2351321785";"";"";
"253";"ГБУДО города Москвы «Детская музыкальная школа имени Мурадели»";"Центральный административный округ";"район Хамовники";"Российская Федерация, город Москва, внутригородская территория муниципальный округ Хамовники, улица Пречистенка, дом 32/1, строение 7";"3";"Moscow_WiFi_Free";"50";"действует";"открытая сеть";"";"55.741024";"37.590596";"2351321786";"";"";
"254";"ГБУДО города Москвы «Детская музыкальная школа имени Грига»";"Западный административный округ";"район Проспект Вернадского";"Российская Федерация, город Москва, внутригородская территория муниципальный округ Проспект Вернадского, улица Лобачевского, дом 38";"8";"Moscow_WiFi_Free";"50";"действует";"открытая сеть";"";"55.669011";"37.503810";"2351321787";"";"";
"255";"ГБУДО города Москвы «Детская музыкальная школа имени Нейгауза»";"Юго-Восточный административный округ";"Рязанский район";"Российская Федерация, город Москва, внутригородская территория муниципальный округ Рязанский, 1-я Новокузьминская улица, дом 19";"7";"Moscow_WiFi_Free";"50";"действует";"открытая сеть";"";"55.714668";"37.790893";"2351321788";"";"";
"256";"ГБУДО города Москвы «Детская школа искусств имени Светланова»";"Северо-Восточный административный округ";"Алексеевский район";"Российская Федерация, город Москва, внутригородская территория муниципальный округ Алексеевский, Кулаков переулок, дом 7";"8";"Moscow_WiFi_Free";"50";"действует";"открытая сеть";"";"55.804759";"37.639455";"2351321789";"";"";
"267";"ГБУДО города Москвы «Детская музыкальная школа имени Глазунова»";"Юго-Восточный административный округ";"район Люблино";"Российская Федерация, город Москва, внутригородская территория муниципальный округ Люблино, улица Верхние Поля, дом 11, корпус 2";"7";"Moscow_WiFi_Free";"50";"действует";"открытая сеть";"";"55.666213";"37.747082";"2351321790";"";"";
"237";"ГБУДО города Москвы «Киевская Детская музыкальная школа»";"Троицкий административный округ";"поселение Киевский";"Российская Федерация, город Москва, внутригородская территория поселение Киевский, рабочий посёлок Киевский, дом 16А";"2";"Moscow_WiFi_Free";"50";"действует";"открытая сеть";"";"55.429445";"36.867892";"2351321791";"";"";
"257";"ГБУДО города Москвы «Детская школа искусств имени Шуберта»";"Западный административный округ";"район Проспект Вернадского";"Российская Федерация, город Москва, внутригородская территория муниципальный округ Проспект Вернадского, улица Лобачевского, дом 66Б";"8";"Moscow_WiFi_Free";"50";"действует";"открытая сеть";"";"55.677169";"37.495626";"2351321792";"";"";
"268";"ГБУДО города Москвы «Детская школа искусств «Надежда»";"Северо-Западный административный округ";"район Щукино";"Российская Федерация, город Москва, внутригородская территория муниципальный округ Щукино, улица Академика Курчатова, дом 23/13";"9";"Moscow_WiFi_Free";"50";"действует";"открытая сеть";"";"55.806429";"37.476842";"2351321793";"";"";
"238";"ГБУК города Москвы «ОКЦ ТиНАО» Культурный центр «Киевский»";"Троицкий административный округ";"поселение Киевский";"Российская Федерация, город Москва, внутригородская территория поселение Киевский, рабочий посёлок Киевский, дом 16А";"4";"Moscow_WiFi_Free";"50";"действует";"открытая сеть";"";"55.429445";"36.867892";"2351321794";"";"";
"239";"ГБУДО города Москвы «Детская музыкальная школа имени Бабаджаняна»";"Северо-Восточный административный округ";"Алексеевский район";"Российская Федерация, город Москва, внутригородская территория муниципальный округ Алексеевский, проспект Мира, дом 118";"4";"Moscow_WiFi_Free";"50";"действует";"открытая сеть";"";"55.810668";"37.638305";"2351321796";"";"";
"240";"ГБУК города Москвы «ОКЦ ЮАО» Территориальная клубная система «Орехово»";"Южный административный округ";"район Орехово-Борисово Северное";"Российская Федерация, город Москва, внутригородская территория муниципальный округ Орехово-Борисово Северное, Борисовский проезд, дом 11, корпус 3";"2";"Moscow_WiFi_Free";"50";"действует";"открытая сеть";"";"55.627087";"37.719334";"2351321798";"";"";
"260";"ГБУДО города Москвы «Детская музыкальная хоровая школа «Весна» имени Пономарева»";"Северо-Восточный административный округ";"район Южное Медведково";"Российская Федерация, город Москва, внутригородская территория муниципальный округ Южное Медведково, проезд Дежнёва, дом 3";"4";"Moscow_WiFi_Free";"50";"действует";"открытая сеть";"";"55.870895";"37.648025";"2351321799";"";"";
"241";"ГБУК города Москвы «Московский молодежный экспериментальный театр под руководством Вячеслава Спесивцева»";"Северо-Восточный административный округ";"Бутырский район";"Российская Федерация, город Москва, внутригородская территория муниципальный округ Бутырский, улица Руставели, дом 19";"4";"Moscow_WiFi_Free";"50";"действует";"открытая сеть";"";"55.813946";"37.599911";"2351321800";"";"";
"261";"ГБУДО города Москвы «Детская музыкальная школа имени Калинина»";"Юго-Восточный административный округ";"район Капотня";"Российская Федерация, город Москва, внутригородская территория муниципальный округ Капотня, 2-й квартал Капотня, дом 3";"5";"Moscow_WiFi_Free";"50";"действует";"открытая сеть";"";"55.640045";"37.798403";"2351321801";"";"";
"262";"ГБУДО города Москвы «Кокошкинская детская школа искусств»";"Новомосковский административный округ";"поселение Кокошкино";"Российская Федерация, город Москва, внутригородская территория поселение Кокошкино, дачный посёлок Кокошкино, Дачная улица, дом 7А";"6";"Moscow_WiFi_Free";"50";"действует";"открытая сеть";"";"55.598070";"37.162755";"2351321802";"";"";
"263";"ГБУДО города Москвы «Краснопресненская детская художественная школа»";"Центральный административный округ";"Пресненский район";"Российская Федерация, город Москва, внутригородская территория муниципальный округ Пресненский, улица Красина, дом 27";"9";"Moscow_WiFi_Free";"50";"действует";"открытая сеть";"";"55.768603";"37.585170";"2351321803";"";"";
"264";"ГБУК города Москвы «Детский драматический театр «На набережной»";"Центральный административный округ";"район Хамовники";"Российская Федерация, город Москва, внутригородская территория муниципальный округ Хамовники, Фрунзенская набережная, дом 48";"2";"Moscow_WiFi_Free";"50";"действует";"открытая сеть";"";"55.717878";"37.579690";"2351321804";"";"";
"265";"ГБУК города Москвы «Московский театр «ET CETERA» под руководством Александра Калягина»";"Центральный административный округ";"Красносельский район";"Российская Федерация, город Москва, внутригородская территория муниципальный округ Красносельский, Фролов переулок, дом 2";"3";"Moscow_WiFi_Free";"50";"действует";"открытая сеть";"";"55.765063";"37.635620";"2351321805";"";"";
"266";"ГБУДО «Тимирязевская детская художественная школа»";"Северный административный округ";"Тимирязевский район";"Российская Федерация, город Москва, внутригородская территория муниципальный округ Тимирязевский, Дмитровское шоссе, дом 34, корпус 2";"8";"Moscow_WiFi_Free";"50";"действует";"открытая сеть";"";"55.840219";"37.574615";"2351321806";"";"";
"258";"ГБУК города Москвы «Московский государственный академический театр оперетты»";"Центральный административный округ";"Тверской район";"Российская Федерация, город Москва, внутригородская территория муниципальный округ Тверской, улица Большая Дмитровка, дом 6";"1";"Moscow_WiFi_Free";"50";"действует";"открытая сеть";"";"55.760201";"37.616243";"2353233750";"";"";
"259";"ГБУК города Москвы «Детский драматический театр «На набережной»";"Центральный административный округ";"район Хамовники";"Российская Федерация, город Москва, внутригородская территория муниципальный округ Хамовники, улица Хамовнический Вал, дом 2";"3";"Moscow_WiFi_Free";"50";"действует";"открытая сеть";"";"55.716108";"37.576600";"2353233751";"";"";
"269";"ГБУДО города Москвы «Детская музыкальная школа имени Александрова»";"Западный административный округ";"район Дорогомилово";"Российская Федерация, город Москва, внутригородская территория муниципальный округ Дорогомилово, Кутузовский проспект, дом 26, корпус 1";"6";"Moscow_WiFi_Free";"50";"действует";"открытая сеть";"";"55.743330";"37.542392";"2366828608";"";"";
"270";"ГБУДО города Москвы «Детская художественная школа имени Репина»";"Восточный административный округ";"район Ивановское";"Российская Федерация, город Москва, внутригородская территория муниципальный округ Ивановское, шоссе Энтузиастов, дом 53";"1";"Moscow_WiFi_Free";"50";"действует";"открытая сеть";"";"55.773641";"37.825990";"2366828609";"";"";
"271";"ГБУК города Москвы «Московский академический театр сатиры»";"Центральный административный округ";"Тверской район";"Российская Федерация, город Москва, внутригородская территория муниципальный округ Тверской, Триумфальная площадь, дом 2, строение 1";"11";"Moscow_WiFi_Free";"50";"действует";"открытая сеть";"";"55.768269";"37.595411";"2366828610";"";"";
"276";"ГБУК города Москвы «Детский театр эстрады»";"Центральный административный округ";"Басманный район";"Российская Федерация, город Москва, внутригородская территория муниципальный округ Басманный, Бауманская улица, дом 32, строение 1";"5";"Moscow_WiFi_Free";"50";"действует";"открытая сеть";"";"55.772608";"37.678272";"2366828611";"";"";
"272";"ГБУК города Москвы «ОКЦ ЦАО» Дом культуры «Гайдаровец»";"Центральный административный округ";"район Арбат";"Российская Федерация, город Москва, внутригородская территория муниципальный округ Арбат, Староконюшенный переулок, дом 37";"2";"Moscow_WiFi_Free";"50";"действует";"открытая сеть";"";"55.748939";"37.594405";"2366828612";"";"";
"277";"ГБУК города Москвы «Московский театр иллюзии»";"Восточный административный округ";"район Перово";"Российская Федерация, город Москва, внутригородская территория муниципальный округ Перово, улица Лазо, дом 3";"6";"Moscow_WiFi_Free";"50";"действует";"открытая сеть";"";"55.743694";"37.774319";"2366828613";"";"";
"273";"ГБУДО города Москвы «Детская музыкальная школа имени Чеснокова»";"Центральный административный округ";"Пресненский район";"Российская Федерация, город Москва, внутригородская территория муниципальный округ Пресненский, улица Трёхгорный Вал, дом 2-4, строение 1";"7";"Moscow_WiFi_Free";"50";"действует";"открытая сеть";"";"55.758590";"37.562227";"2366828614";"";"";
"278";"ГБУК города Москвы «ОКЦ ЗАО» Культурный центр «Рублево»";"Западный административный округ";"район Кунцево";"Российская Федерация, город Москва, внутригородская территория муниципальный округ Кунцево, посёлок Рублёво, Набережная улица, дом 19";"3";"Moscow_WiFi_Free";"50";"действует";"открытая сеть";"";"55.786936";"37.351680";"2366828615";"";"";
"274";"ГБУДО города Москвы «Детская школа искусств №7»";"Северо-Восточный административный округ";"Лосиноостровский район";"Российская Федерация, город Москва, внутригородская территория муниципальный округ Лосиноостровский, Таймырская улица, дом 5, строение 3";"6";"Moscow_WiFi_Free";"50";"действует";"открытая сеть";"";"55.884156";"37.697846";"2366828616";"";"";
"279";"ГБУК города Москвы «Московский театр на Таганке»";"Центральный административный округ";"Таганский район";"Российская Федерация, город Москва, внутригородская территория муниципальный округ Таганский, улица Александра Солженицына, дом 17, строение 5";"2";"Moscow_WiFi_Free";"50";"действует";"открытая сеть";"";"55.744145";"37.661473";"2366828617";"";"";
"275";"ГБУДО города Москвы «Детская музыкальная школа имени Пастернака»";"Западный административный округ";"район Ново-Переделкино";"Российская Федерация, город Москва, внутригородская территория муниципальный округ Ново-Переделкино, Лукинская улица, дом 7, корпус 1";"11";"Moscow_WiFi_Free";"50";"действует";"открытая сеть";"";"55.643962";"37.339777";"2366828618";"";"";
"280";"ГБУК города Москвы «ОКЦ САО» Клуб «Ладога»";"Северный административный округ";"район Левобережный";"Российская Федерация, город Москва, внутригородская территория муниципальный округ Левобережный, Валдайский проезд, дом 8";"6";"Moscow_WiFi_Free";"50";"действует";"открытая сеть";"";"55.866157";"37.467940";"2366828619";"";"";
